業種(飲食業）,業種（宿泊業）,施設名称,施設名称カナ,施設郵便番号,施設住所,施設住所(方書),認証日,施設住所市町村,緯度,経度
〇,,あ゛～,ア゛～,9900044,山形市木の実町6-32,,2021/6/22,山形市,38.2506122,140.3339977
〇,,THE ARCHIGRAM British Pub & Cafe,アーキグラム　ブリティッシュ　パブアンドカフェ,9900031,山形市十日町2-1-35,,2021/7/15,山形市,38.2459402,140.3362874
〇,,愛,アイ,9900042,山形市七日町4-16-32,,2021/11/26,山形市,38.2541844,140.3428667
〇,,あいこう亭,アイコウテイ,9900831,山形市西田2-24-55,,2021/9/15,山形市,38.26446346,140.3117371
〇,,ISLAND PEAK,アイランドピーク,9900043,山形市本町1-7-24,,2021/6/4,山形市,38.25169853,140.3375788
〇,,アイリーンズ　キッチン,アイリーンズ　キッチン,9900057,山形市宮町3-7-34,,2021/5/12,山形市,38.27032546,140.3380829
〇,,Avantgarde Be,アヴァンギャルドビー,9900039,山形市香澄町1-10-1,ホテルクラウンヒルズB1F,2021/7/9,山形市,38.2486633,140.3304362
〇,,葵,アオイ,9900833,山形市春日町6-2,,2021/6/18,山形市,38.2521378,140.3189783
〇,,Acasha,アカーシャ,9900039,山形市香澄町1-9-11,VIP HONDAKAN2F,2021/11/22,山形市,38.24867229,140.3301085
〇,,赤身焼肉しん,アカミヤキニクシン,9900845,山形市飯塚町2007,,2021/10/29,山形市,38.258408,140.2840734
〇,,赤湯ラーメン龍上海　医大前店,アカユラーメンリュウシャンハイ　イダイマエテン,9902331,山形市飯田西4-1-20,,2021/6/16,山形市,38.21569839,140.3219012
〇,,秋しの,アキシノ,9900042,山形市七日町2-3-22,高橋ビル3番館2F,2021/7/28,山形市,38.251543,140.3409335
〇,,亞呉屋　山形駅前店,アゴヤ　ヤマガタエキマエテン,9900031,山形市十日町4-1-6,,2021/11/12,山形市,38.2462124,140.3334401
〇,,亞呉屋　山形本店,アゴヤ　ヤマガタホンテン,9902446,山形市白山1-9-15,,2021/10/11,山形市,38.22785346,140.3191988
〇,,アジアンカフェ　フォーチュン,アジアンカフェ　フォーチュン,9900812,山形市千歳1-16-38,1F,2021/11/22,山形市,38.283047,140.3398701
〇,,アジアンダイニング　ブッタ,アジアンダイニング　ブッタ,9902442,山形市南二番町6-17,,2021/11/1,山形市,38.22988709,140.326998
〇,,味工房すず,アジコウボウスズ,9900833,山形市春日町8-5,,2021/7/2,山形市,38.25240483,140.3197831
〇,,味処　川なり,アジドコロ　カワナリ,9900039,山形市香澄町1-21-3,,2021/7/5,山形市,38.2498612,140.3308087
〇,,味処　旬風,アジドコロ　シュンプウ,9902431,山形市松見町8-4,,2021/11/16,山形市,38.2303167,140.3380296
〇,,味処　のろ川,アジドコロ　ノロガワ,9900076,山形市平久保40-1,,2021/8/20,山形市,38.2881434,140.356165
〇,,味の里　ばんだい,アジノサト　バンダイ,9900032,山形市小姓町3-8,,2021/6/30,山形市,38.24709462,140.3398448
〇,,味の園,アジノソノ,9900047,山形市旅篭町1-8-11,,2021/5/12,山形市,38.2551962,140.3353938
〇,,味の店　スズラン,アジノミセ　スズラン,9900039,山形市香澄町2-10-5,,2021/7/21,山形市,38.2490887,140.3311229
〇,,味の店　竹屋,アジノミセ　タケヤ,9900827,山形市城南町2-6-7,,2021/9/13,山形市,38.25116853,140.3242485
〇,,味わい,アジワイ,9902339,山形市成沢西5-5-5,,2021/7/14,山形市,38.20846535,140.3213414
〇,,アビー,アビー,9900042,山形市七日町2-1-24,,2021/10/13,山形市,38.25222922,140.3403563
〇,,アメリカンダイニング　チェルシー&コウ,アメリカンダイニングチェルシーアンドコウ,9900047,山形市旅籠町2-2-26,庄司ビルB1F,2021/7/27,山形市,38.2542047,140.3391978
〇,,あやめ寿し,アヤメズシ,9900021,山形市小白川町5-1-6,,2021/8/10,山形市,38.24524658,140.3616004
〇,,新政酒蔵,アラマササカグラ,9900861,山形市香澄町1-14-1,,2021/8/5,山形市,38.2491014,140.3295485
〇,,あるますーぷ,アルマスープ,9900042,山形市七日町4-16-14,,2021/12/7,山形市,38.25512476,140.3432378
〇,,アンカリング,アンカリング,9900075,山形市落合町2377-9,,2021/6/21,山形市,38.27602509,140.3511843
〇,,アンドマークカフェ,アンドマークカフェ,9900861,山形市江俣2-1-29,,2021/5/27,山形市,38.27773497,140.3242643
〇,,アントンズカフェ,アントンズカフェ,9900810,山形市馬見ヶ崎3-1-1,,2021/7/28,山形市,38.27896563,140.3278453
〇,,Infini Cafe,アンフィニ　カフェ,9900829,山形市五日町7-13,T-AVENUE101,2021/6/2,山形市,38.2449786,140.3216274
〇,,いがもちの里　さんべ,イガモチノサト　サンベ,9902301,山形市蔵王温泉1221-2,,2021/7/5,山形市,38.16474287,140.3713534
〇,,活味　魚友,イキアジ　ウオトモ,9900042,山形市七日町4-8-7,,2021/8/2,山形市,38.2535671,140.3425235
〇,,いこい処　冨美館,イコイドコロ　フミヤ,9900039,山形市香澄町1-13-17,YT1丁目ビル,2021/7/29,山形市,38.24931192,140.3302403
〇,,イサオティーノ,イサオティーノ,9900042,山形市七日町2-4-8,,2021/10/20,山形市,38.25257107,140.3414117
〇,,居酒PUB　Wai Wai,イザカパブ　ワイワイ,9900039,山形市香澄町1-9-6,C&Dビル5F,2021/6/14,山形市,38.24887446,140.3298452
〇,,居酒屋　味山海,イザカヤ　アジサンカイ,9900043,山形市本町2-4-21,,2021/5/8,山形市,38.25178584,140.3387644
〇,,居酒屋　糸車,イザカヤ　イトグルマ,9900039,山形市香澄町3-5-20,,2021/7/29,山形市,38.2461658,140.3302648
〇,,居酒屋　おおたき,イザカヤ　オオタキ,9900038,山形市幸町12-38,,2021/6/29,山形市,38.2430071,140.3270952
〇,,居酒屋　おかめ,イザカヤ　オカメ,9900042,山形市七日町3-4-26,,2021/6/21,山形市,38.25466096,140.3423621
〇,,居酒家　おてだま,イザカヤ　オテダマ,9902331,山形市飯田西4-4-13,,2021/11/29,山形市,38.21490462,140.3217656
〇,,居酒屋　鬼次,イザカヤ　オニジ,9900813,山形市桧町4-7-1,,2021/9/8,山形市,38.27621651,140.3269655
〇,,居酒屋　吉左右,イザカヤ　キッソウ,9900043,山形市本町2-3-57,,2021/9/8,山形市,38.249787,140.3393827
〇,,居酒屋　銀次郎,イザカヤ　ギンジロウ,9900067,山形市花楯1-1-20,,2021/11/1,山形市,38.270831,140.3489485
〇,,居酒屋　串でん,イザカヤ　クシデン,9900039,山形市香澄町1-15-20,,2021/6/16,山形市,38.25025578,140.3298624
〇,,居酒屋　倉,イザカヤ　クラ,9900038,山形市幸町6-13,板垣ビル1F,2021/6/16,山形市,38.2464426,140.3293387
〇,,居酒屋　ごう,イザカヤ　ゴウ,9900032,山形市小姓町1-14,,2021/7/20,山形市,38.24718226,140.339376
〇,,居酒屋　廣月,イザカヤ　コウゲツ,9902443,山形市南三番町1-1,,2021/6/22,山形市,38.2327993,140.3231507
〇,,居酒屋　庄兵衛,イザカヤ　ショウベイ,9902332,山形市飯田3-1-2,,2021/8/4,山形市,38.21686732,140.3325845
〇,,居酒屋　新我が家,イザカヤ　シンワガヤ,9900038,山形市幸町5-12,,2021/7/30,山形市,38.2466686,140.3282407
〇,,居酒屋　つぼみ,イザカヤ　ツボミ,9900039,山形市香澄町1-5-3,第２大宝ビル　1F,2021/11/22,山形市,38.24786666,140.3299879
〇,,居酒屋　田々,イザカヤ　デンデン,9900039,山形市香澄町1-9-1,珍味ビル2F北,2021/6/7,山形市,38.24878472,140.3294806
〇,,居酒家　土間土間　山形店,イザカヤ　ドマドマ　ヤマガタテン,9900039,山形市香澄町2-3-35,ヤマキビル1F,2021/6/25,山形市,38.2470166,140.3322636
〇,,居酒屋　ひょうたん,イザカヤ　ヒョウタン,9900039,山形市香澄町1-8-8,第一ビル1F,2021/6/24,山形市,38.2487056,140.3292258
〇,,居酒屋　深堀,イザカヤ　フカボリ,9900834,山形市清住町1-3-21,,2021/11/24,山形市,38.2552998,140.3180576
〇,,居酒屋　北海　漁舟群,イザカヤ　ホッカイ　ギョセングン,9900038,山形市幸町7-34,,2021/8/18,山形市,38.24461409,140.3283852
〇,,居酒屋　満丸,イザカヤ　マンマル,9900042,山形市七日町4-15-38,,2021/7/5,山形市,38.25418769,140.3438503
〇,,居酒屋　雅,イザカヤ　ミヤビ,9900023,山形市松波2-2-8,マルヨシビルA棟1F北,2021/6/14,山形市,38.2413988,140.3573806
〇,,居酒屋　八重,イザカヤ　ヤエ,9900042,山形市七日町3-4-24,地下1階,2021/10/14,山形市,38.25464196,140.3424739
〇,,居酒屋　やま美,イザカヤ　ヤマミ,9900831,山形市西田2-24-55,,2021/6/25,山形市,38.26417494,140.3116915
〇,,居酒屋　遊らく,イザカヤ　ユラク,9900861,山形市江俣5-3-39,,2021/9/13,山形市,38.2788662,140.314158
〇,,居酒屋　芳屋,イザカヤ　ヨシヤ,9900039,山形市香澄町3-1-27,2F,2021/6/11,山形市,38.2469966,140.3300128
〇,,居酒屋　和利勘,イザカヤ　ワリカン,9900054,山形市六日町7-21,,2021/8/20,山形市,38.25831847,140.3433925
〇,,居酒屋隠れ家,イザカヤカクレガ,9900042,山形市七日町2-4-3,,2021/11/2,山形市,38.2524842,140.3411617
〇,,居酒屋割烹　はやし家,イザカヤカッポウ　ハヤシヤ,9900039,山形市香澄町1-21-24,,2021/7/5,山形市,38.24990999,140.331305
〇,,居酒屋くぼた,イザカヤクボタ,9902481,山形市あかねヶ丘1-12-7,,2021/7/29,山形市,38.24804529,140.3132825
〇,,居酒屋　くる味,イザカヤクルミ,9900039,山形市香澄町3-5-17,,2021/8/3,山形市,38.24615772,140.3303939
〇,,居酒屋旬肴　ろじうら,イザカヤシュンキ　ロジウラ,9900042,山形市七日町4-15-38,,2021/5/13,山形市,38.25412819,140.3438597
〇,,居酒屋・スナック　R（あーる）,イザカヤスナック　アール,9900039,山形市香澄町1-4-7,清野ビル2F,2021/8/23,山形市,38.24810558,140.3296373
〇,,居酒屋スナック　千慧,イザカヤスナック　チエ,9900042,山形市七日町4-11-4,ナイトイン花小路西1F,2021/8/18,山形市,38.2539403,140.3442144
〇,,居酒屋・Snack・Cafe・Barアートシーン,イザカヤスナックカフェバーアートシーン,9900032,山形市小姓町3-8,ビルドサカイ1-C,2021/10/11,山形市,38.24713465,140.3397912
〇,,居酒屋スナックわらべ,イザカヤスナックワラベ,9900042,山形市七日町3-3-11,,2021/7/20,山形市,38.25422008,140.3417786
〇,,居酒屋ひろやん,イザカヤヒロヤン,9900034,山形市東原町4-18-65,,2021/11/22,山形市,38.2431894,140.3498864
〇,,居酒や牧場うまや,イザカヤボクジョウウウマヤ,9906042,山形市七日町2-3-14,ホーユービルF号室,2021/7/28,山形市,38.25205599,140.3410586
〇,,居酒屋　桃太郎,イザカヤモモタロウ,9902211,山形市大字十文字2187-9,,2021/7/16,山形市,38.3049837,140.369182
〇,,石焼ステーキ贅　山形嶋店,イシヤキステーキゼイ　ヤマガタシマテン,9900885,山形市嶋北2-5-10,,2021/9/21,山形市,38.28513297,140.3176695
〇,,石山寿司,イシヤマスシ,9900031,山形市十日町3-9-28,,2021/11/2,山形市,38.24201619,140.3360472
〇,,居食房　香chette,イショクボウ　カシェット,9900031,山形市十日町1-4-24,,2021/12/14,山形市,38.2477828,140.3343521
〇,,いっこ寿司,イッコズシ,9900039,山形市香澄町1-10-1,ブリーズベイ山形ビル1F,2021/6/9,山形市,38.24871175,140.3306776
〇,,ISSYS cafe,イッシーズカフェ,9902421,山形市上桜田5-8-15,,2021/9/9,山形市,38.21886718,140.3406405
〇,,いつもの場所　江俣店,イツモノトコロ　エマタテン,9900861,山形市江俣3-18-24,,2021/5/31,山形市,38.2775047,140.3194144
〇,,いつもの場所　大野目店,イツモノトコロ　ダイノメテン,9900061,山形市五十鈴2-1-5,,2021/6/21,山形市,38.27360656,140.3524862
〇,,いつもの場所　七日町店,イツモノトコロ　ナノカマチテン,9900042,山形市七日町2-7-6,2F,2021/6/16,山形市,38.2531798,140.3399326
〇,,いのこ家　山形田,イノコヤヤマガタダ,9908580,山形市城南町1-1-1,霞城セントラル1F,2021/9/7,山形市,38.2498297,140.326406
〇,,いまから,イマカラ,9900042,山形市七日町3-2-22,やきとりセンタービル2F,2021/6/4,山形市,38.25396934,140.3414017
〇,,Iris,イリス,9900043,山形市本町2-3-57,樫の木荘1F-2,2021/7/7,山形市,38.249787,140.3393827
〇,,いる・くお～れ,イル　クオ～レ,9902453,山形市若宮3-3-4,,2021/6/2,山形市,38.22419406,140.3094201
〇,,IL BLU　遊学館,イルブル　ユウガクカン,9900041,山形市緑町1-2-36,遊学館1F,2021/7/13,山形市,38.25530646,140.3443496
〇,,いろはにほへと山形駅前店,イロハニホヘト　ヤマガタエキマエテン,9900039,山形市香澄町3-1-9,後藤ビル　１F,2021/10/6,山形市,38.24700114,140.3310376
〇,,印度れすとらん　カシミール鈴川,インドレストラン　カシミールスズカワ,9900062,山形市鈴川町3-4-10,ベルタウンC棟,2021/10/4,山形市,38.26944644,140.3573708
〇,,ヴィクトリア,ヴィクトリア,9940101,山形市七日町2-3-13,ホーユービル1F,2021/7/19,山形市,38.25199884,140.3409204
〇,,ヴィラッジオ,ヴィラッジオ,9900037,山形市八日町1-2-2,1F,2021/5/26,山形市,38.24352199,140.3280965
〇,,魚きがるに酒場,ウオキガルニサカバ,9900039,山形市香澄町2-1-2,,2021/5/28,山形市,38.24782754,140.3304888
〇,,魚きがるに炉端,ウオキガルニロバタ,9902435,山形市青田4-4-17,,2021/5/26,山形市,38.2232482,140.3286472
〇,,魚民　山形駅前店,ウオタミ　ヤマガタエキマエテン,9900039,山形市香澄町1-15-28,ホテルニュー最上屋地下1F,2021/10/15,山形市,38.24966553,140.3293167
〇,,うぐいす亭,ウグイステイ,9902303,山形市表蔵王68,山形県観光物産会館　フードコート内,2021/12/2,山形市,38.19006795,140.3124031
〇,,うちなー酒家　ぶーさー,ウチナーサカヤ　ブーサー,9900039,山形市香澄町2-2-1,大久保ビル1F,2021/6/25,山形市,38.24760389,140.330327
〇,,鰻・郷土料理　あげつま,ウナギキョウドリョウリアゲツマ,9900041,山形市緑町3-7-48,,2021/5/13,山形市,38.2508979,140.347975
〇,,うまい鮨勘　山形南支店,ウマイスシカン　ヤマガタミナミシテン,9902453,山形市若宮2-10-2,,2021/9/2,山形市,38.22448199,140.3123294
〇,,旨唐揚げと居酒メシ「ミライザカ」山形駅前大通り店,ウマカラアゲト イザカメシ「ミライザカ」ヤマガタ エキマエ オオドオリテン　,9900039,山形市香澄町3-2-1,山交ビルB1F,2021/8/6,山形市,38.24619295,140.3317982
〇,,榮玉堂,エイギョクドウ,9900047,山形市旅篭町2-1-45,,2021/8/6,山形市,38.2547081,140.3378373
〇,,栄幸亭,エイコウテイ,9902323,山形市桜田東3-8-5,,2021/8/25,山形市,38.2180485,140.3231691
〇,,エスプリ　ドゥ　カンパニュー,エスプリ　ドゥ　カンパニュー,9900039,山形市香澄町1-7-7,酒井ビル2F,2021/10/12,山形市,38.24839029,140.3298172
〇,,S1　エスワン,エスワン,9900042,山形市七日町4-10-16,,2021/7/19,山形市,38.2537089,140.3438749
〇,,江戸寿司,エドスシ,9900039,山形市香澄町1-18-17,,2021/10/19,山形市,38.2506266,140.3295541
〇,,江戸寿司支店,エドズシシテン,9900861,山形市江俣3-18-38,,2021/9/29,山形市,38.2769806,140.3209019
〇,,Enoteca（エノテーカ）,エノテーカ,9900039,山形市香澄町2-3-36,ヤマダビル1F,2021/7/6,山形市,38.246992,140.3321481
〇,,Ｆ,エフ,9900039,山形市香澄町1-6-10,佐五郎ビル2F,2021/7/19,山形市,38.24827676,140.3301998
〇,,m'z KITCHEN,エムズキッチン,9902447,山形市元木1-13-30,moh'z内,2021/7/30,山形市,38.22645847,140.3271018
〇,,ELLE,エル,9900043,山形市本町2-4-22,,2021/6/24,山形市,38.25176995,140.3388357
〇,,縁,エン,9902171,山形市七浦290-5,,2021/10/1,山形市,38.3034843,140.3357141
〇,,円満焼肉　平次,エンマンヤキニク　ヘイジ,9900861,山形市江俣4-19-36,,2021/8/5,山形市,38.2782239,140.3189883
〇,,王様の焼肉くろぬま山形西高前店,オウサマノヤキニククロヌマヤマガタニシコウマエテン,9902495,山形市若葉町6-33,,2021/7/7,山形市,38.23972104,140.3266592
〇,,大阪お好み焼き　たこ壺,オオサカオコノミヤキ　タコツボ,9902482,山形市久保田1-7-5,,2021/8/4,山形市,38.2488329,140.31913
〇,,大沼家,オオヌマケ,9900042,山形市七日町2-4-16,熊谷第2ビル1F,2021/11/19,山形市,38.25223521,140.3413743
〇,,大沼食堂,オオヌマショクドウ,9900859,山形市西原1-11-12,,2021/8/18,山形市,38.265405,140.2806285
〇,,大番,オオバン,9902331,山形市飯田西4-4-12,,2021/8/31,山形市,38.21499091,140.3219035
〇,,置賜俱楽部,オキタマクラブ,9900042,山形市七日町4-10-21,,2021/7/6,山形市,38.25395862,140.3434153
〇,,お好み鉄板酒家　好きやねん,オコノミテッパンサカヤ　スキヤネン,9900039,山形市香澄町2-5-2,七栄ビル2F,2021/10/5,山形市,38.24821648,140.3306715
〇,,お好み焼き家ふうふぅ,オコノミヤキヤフウフゥ,9900892,山形市中野98-1,,2021/10/25,山形市,38.3041758,140.3016893
〇,,お食事処　伊達城,オショクジドコロ　ダテジョウ,9902163,山形市伊達城2-2-19,,2021/10/7,山形市,38.3073376,140.3586929
〇,,お食事処　べにばな亭,オショクジドコロ　ベニバナテイ,9900039,山形市香澄町1-16-34,東口交通センター2F,2021/9/9,山形市,38.24939787,140.3287368
〇,,お食事処　北海,オショクジドコロ　ホッカイ,9902433,山形市鳥居ヶ丘9-7,,2021/6/24,山形市,38.22934503,140.3295668
〇,,お食事処　与右エ門亭,オショクジドコロ　ヨエモンテイ,9902313,山形市大字松原342-13,,2021/11/9,山形市,38.2076304,140.3066477
〇,,オステリア　イル　ペッシェ,オステリア イル ペッシェ,9900057,山形市宮町5-8-4,,2021/5/27,山形市,38.2628155,140.3369404
〇,,おでん　たぬき,オデン　タヌキ,9900039,山形市香澄町1-4-7,清野ビル1F,2021/11/2,山形市,38.24807925,140.3296789
〇,,おでん　ふくろ,オデン　フクロ,9900042,山形市七日町3-5-1,,2021/5/28,山形市,38.2545356,140.3411686
〇,,鬼がらし　江俣店,オニガラシ　エマタテン,9900861,山形市江俣3-18-28,,2021/9/13,山形市,38.2772747,140.3198469
〇,,鬼がらし　本店,オニガラシ　ホンテン,9902413,山形市南原町3-9-38,,2021/8/11,山形市,38.2328752,140.3459778
〇,,オモニ石BB,オモニイシビービー,9900042,山形市七日町1-4-31,伊勢ビル2B,2021/6/8,山形市,38.25359004,140.339253
〇,,おやじの気まぐれ,オヤジノキマグレ,9900042,山形市七日町1-2-56,,2021/6/11,山形市,38.2522235,140.3367796
〇,,お休み処　対面石,オヤスミドコロ　タイメンセキ,9993301,山形市大字山寺4411,,2021/12/9,山形市,38.31139219,140.434983
〇,,オリエンタルバルヤマガタ,オリエンタルバルヤマガタ,9900039,山形市香澄町2-1-4,土井ビル1F,2021/6/9,山形市,38.24802272,140.3306395
〇,,オリオリ,オリオリ,9900042,山形市七日町2-7-38,カジュアルSプラザ,2021/11/2,山形市,38.25241569,140.3404957
〇,,御料理白ぎく,オリョウリシラギク,9900042,山形市七日町4-5-5,,2021/9/3,山形市,38.25269312,140.3443119
〇,,お料理はやし,オリョウリハヤシ,9902451,山形市吉原2-9-3,,2021/9/2,山形市,38.22907365,140.3126994
〇,,御りょう里屋　伊藤,オリョウリヤ　イトウ,9900042,山形市七日町4-10-16,,2021/10/5,山形市,38.25372575,140.3439889
〇,,オレンジ,オレンジ,9900039,山形市香澄町1-6-2,伊藤ビル2F,2021/6/2,山形市,38.2483777,140.3301612
〇,,オワゾブルー山形,オワゾブルーヤマガタ,9900042,山形市七日町1-4-35,,2021/5/17,山形市,38.25328279,140.3389472
〇,,CALM,カーム,9900038,山形市幸町5-2,,2021/7/29,山形市,38.24743684,140.328417
〇,,開運バー七日町,カイウンバーナノカマチ,9900042,山形市七日町2-7-36,,2021/12/3,山形市,38.25246525,140.3405557
〇,,海鮮・炭火串焼　庄内うなさか,カイセン・スミビクシヤキ　ショウナイウナサカ,9900042,山形市七日町3-3-8,,2021/11/9,山形市,38.2539485,140.3416614
〇,,海鮮料理　和の粋,カイセンリョウリ　ナゴミノイキ,9900035,山形市小荷駄町1-73,,2021/7/1,山形市,38.24043447,140.3394473
〇,,カクテルバー　ビリー,カクテルバー　ビリー,9900037,山形市七日町3-2-33,吉野屋プロムナード2F,2021/11/8,山形市,38.2536683,140.340654
〇,,かくれ庵　sasaki,カクレアン　ササキ,9900886,山形市嶋南3-8-22,,2021/6/2,山形市,38.28224377,140.317066
〇,,隠れBar KUGETSU,カクレバー　クゲツ,9900042,山形市七日町4-15-38,花小路屋台村,2021/8/10,山形市,38.25428458,140.3437786
〇,,KASHIF,カシーフ,9900042,山形市七日町3-2-26,鈴木ビル1F,2021/8/20,山形市,38.25358001,140.3411705
〇,,かしわや,カシワヤ,9902334,山形市蔵王成沢613-1,,2021/11/25,山形市,38.20377363,140.3181892
〇,,KAZU,カズ,9900038,山形市幸町5-2,,2021/7/29,山形市,38.24739998,140.3283862
〇,,花水美,カスミ,9900032,山形市小姓町9-2,光小路ビル2F,2021/6/29,山形市,38.24757003,140.3395809
〇,,ガスライト（山形七日町ワシントンホテル）,ガスライトヤマガタナノカマチワシントンホテル,9900042,山形市七日町1-4-31,,2021/5/8,山形市,38.25353633,140.3391229
〇,,花鳥風月山形北町店,カチョウフウゲツヤマガタキタマチテン,9900821,山形市北町3-11-22,,2021/8/2,山形市,38.27345021,140.3243636
〇,,花鳥風月山形南店,カチョウフウゲツヤマガタミナミテン,9902453,山形市若宮4-4-26,,2021/8/5,山形市,38.22768409,140.3063741
〇,,かっぱ寿司山形嶋店,カッパスシヤマガタシマテン,9900874,山形市嶋南3-15-32,,2021/10/25,山形市,38.28305905,140.3180515
〇,,かっぱ寿司山形元木店,カッパスシヤマガタモトキテン,9902447,山形市元木1-10-34,,2021/10/22,山形市,38.2252536,140.3265562
〇,,割烹　飯豊,カッポウ　イイデ,9900039,山形市香澄町3-5-20,,2021/6/10,山形市,38.24623952,140.3302836
〇,,割烹　加とう,カッポウ　カトウ,9900042,山形市七日町2-3-3,,2021/7/30,山形市,38.2517259,140.3403394
〇,,割烹　利休,カッポウ　リキュウ,9900039,山形市香澄町1-4-5,マルイビル地下,2021/6/22,山形市,38.24831216,140.3294492
〇,,かつや山形荒楯店,カツヤヤマガタアラタテテン,9902432,山形市荒楯町1-3-1,,2021/8/16,山形市,38.23446637,140.3345628
〇,,かつや山形江俣店,カツヤヤマガタエマタテン,9900861,山形市江俣5-2-27,,2021/8/17,山形市,38.2786138,140.3146174
〇,,かつや山形大野目店,カツヤヤマガタダイノメテン,9900072,山形市浜崎88-3,,2021/8/24,山形市,38.28287052,140.3555475
〇,,家庭の味　そら月,カテイノアジ　ソラツキ,9900031,山形県山形市十日町2-3-4,,2021/8/17,山形市,38.24730077,140.3376222
〇,,家庭料理　おか,カテイリョウリ　オカ,9900039,山形市香澄町3-3-23,,2021/7/19,山形市,38.24558679,140.3320321
〇,,家庭料理　美酒話,カテイリョウリ　ミサワ,9900073,山形市大野目1-4-35,,2021/5/26,山形市,38.27338354,140.3590726
〇,,金森酒店　角打ち,カナモリサケテン　カクウチ,9900827,山形市城南町1-9-10,,2021/7/29,山形市,38.25137437,140.3262056
〇,,Cafe & Dining 990,カフェ　アンド　ダイニング　クックレイ,9900031,山形市十日町2-1-8,,2021/6/24,山形市,38.24668913,140.335805
〇,,cafe　コロ,カフェ　コロ,9900047,山形市旅篭町1-1-1,,2021/7/19,山形市,38.2542964,140.3342288
〇,,Cafe &　Dining　茶房,カフェアンドダイニング　サボウ,9900042,山形市七日町2-3-25,,2021/5/17,山形市,38.25126329,140.3410324
〇,,Cafe&Musicbar 音蔵 -onthe- ,カフェアンドミュージックバー オンザ,9902301,山形市蔵王温泉808-5,,2021/12/13,山形市,38.16968999,140.3995686
〇,,Cafe Dining PATIO,カフェダイニングパティオ,9900031,山形市十日町4-2-7,,2021/6/10,山形市,38.24590956,140.334552
〇,,カフェレストラン　グランロック,カフェレストラン　グランロック,9900074,山形市芳野27,,2021/8/11,山形市,38.28200794,140.3562203
〇,,カフェレストランJuRI,カフェレストランジュリ,9902211,山形市十文字1591,,2021/11/10,山形市,38.30794834,140.3637305
〇,,カフェレストラン暖炉館,カフェレストランダンロカン,9902332,山形市飯田3-1-15,,2021/8/20,山形市,38.2172036,140.3312387
〇,,（株）中島商店,カブシキガイシャナカジマショウテン,9900055,山形市相生町8-55,,2021/7/27,山形市,38.25953339,140.3380686
〇,,カプリチョーザ山形エスパル店,カプリチョーザヤマガタエスパルテン,9900039,山形市香住町1-1-1,山形エスパル5F,2021/10/26,山形市,38.24892317,140.3279555
〇,,歌夢歌夢,カムカム,9900073,山形市大野目1-11-70,らくだ屋ビル2F,2021/8/2,山形市,38.27588479,140.3580784
〇,,カラオケスナック　JinJin,カラオケスナック　ジンジン,9900834,山形市清住町2-9-24,,2021/6/21,山形市,38.2571001,140.3145187
〇,,カラオケハウス　スイングキャット,カラオケハウス　スイングキャット,9900861,山形市江俣2-2-1,,2021/11/25,山形市,38.27813354,140.3242821
〇,,カラオケレストラン　グー山形桧町店,カラオケレストラン　グーヤマガタヒノキチョウテン,9900813,山形市桧町4-1-28,,2021/8/19,山形市,38.27577638,140.3275494
〇,,カラオケレストラン　グー山形南館店,カラオケレストラン　グーヤマガタミナミダテテン,9902461,山形市南館3-2-22,,2021/8/25,山形市,38.23623621,140.312253
〇,,我楽多再現FACTORY駅前交民館,ガラクタサイゲンファクトリーエキマエコウミンカン,9900039,山形市香澄町1-7-13,,2021/9/3,山形市,38.24841759,140.3297129
〇,,我楽多レディースキッチン,ガラクタレディースキッチン,9900039,山形市香澄町1-7-8,山口ビル1F,2021/8/23,山形市,38.24841191,140.3299771
〇,,花凛,カリン,9900057,山形市宮町3-5-22,,2021/10/25,山形市,38.270325,140.3364614
〇,,カルミア,カルミア,9900042,山形市七日町3-3-43,王城ビル4F,2021/6/10,山形市,38.25333457,140.3415302
〇,,カレー・らーめん　アッキー,カレー・ラーメン　アッキー,9900039,山形市香澄町1-16-34,東交通センター２F,2021/8/3,山形市,38.2492657,140.3286818
〇,,韓国スナック　わ～いわい,カンコクスナック　ワーイワイ,9900039,山形市香澄町1-6-2,伊藤ビル２Ｆ,2021/11/9,山形市,38.2483777,140.3301612
〇,,韓国スナック花,カンコクスナックハナ,9900039,山形市香澄町1-9-1,珍味ビル2F,2021/6/25,山形市,38.24880789,140.3295181
〇,,韓国パブ　ヴィクトリー,カンコクパブ　ヴィクトリー,9900039,山形市香澄町1-9-11 ,本田ビル地下1F,2021/9/14,山形市,38.24861805,140.3300703
〇,,韓国ポチャマンナ,カンコクポチャマンナ,9900039,山形市香澄町1-5-1,大宝ビル1F,2021/11/9,山形市,38.24781465,140.3297993
〇,,韓丼山形あかねヶ丘店,カンドンヤマガタアカネガオカテン,9902481,山形市あかねヶ丘2-16-27,,2021/8/24,山形市,38.243754,140.3077185
〇,,きがるに大衆酒場,キガルニタイシュウサカバ,9900039,山形市香澄町2-1-1,,2021/5/28,山形市,38.24774261,140.3304755
〇,,キジマラーメン,キジマラーメン,9902342,山形市門伝43,,2021/11/17,山形市,38.23986944,140.2654564
〇,,季節の味　こぶし,キセツノアジ　コブシ,9900032,山形市小姓町9-2,光小路ビル1F,2021/7/6,山形市,38.24758793,140.33942
〇,,季節料理　居酒屋　伝七,キセツリョウリ　イザカヤデンシチ,9900038,山形市幸町5-1,ゴーイチビル地下1F,2021/8/5,山形市,38.24746954,140.3283165
〇,,北野水産山形駅前店,キタノスイサンヤマガタエキマエテン,9900039,山形市香澄町1-8-8,山形第1ビル2F,2021/8/6,山形市,38.2487056,140.3292258
〇,,北の宿,キタノヤド,9900047,山形市旅篭町1-1-1,,2021/6/4,山形市,38.2542964,140.3342288
〇,,喜茶,キチャ,9900831,山形市西田3-14-14,,2021/8/18,山形市,38.268036,140.3139166
〇,,喫茶　白十字,キッサ　ハクジュウジ,9900042,山形市七日町2-7-15,中村ビル1F,2021/7/6,山形市,38.2536445,140.3399165
〇,,キッチン友,キッチントモ,9900047,山形市旅籠町2-1-36,第３三井菱ビル　１F,2021/10/26,山形市,38.25475425,140.3386398
〇,,キッチン豆の木,キッチンマメノキ,9900039,山形市香澄町1-8-8,,2021/5/27,山形市,38.2487056,140.3292258
〇,,キッチンラーメン　濱,キッチンラーメン　ハマ,9902161,山形市漆山1318-2,,2021/9/29,山形市,38.30932411,140.363715
〇,,Kitchen leaf,キッチンリーフ,9900047,山形市旅篭町2-1-40,2F,2021/5/12,山形市,38.2545266,140.3384774
〇,,牛角　山形桧町店,ギュウカク　ヤマガタヒノキマチテン,9900813,山形市桧町2-3-20,,2021/10/8,山形市,38.27565729,140.3334278
〇,,牛角山形桜田店,ギュウカクヤマガタサクラダテン,9902323,山形市桜田東1-1-1,,2021/5/18,山形市,38.2222172,140.3201081
〇,,牛たん　友,ギュウタン　トモ,9900039,山形市香澄町1-11-14,唐津ビル2F,2021/7/6,山形市,38.2494015,140.3309577
〇,,餃子屋,ギョウザヤ,9900039,山形市香澄町3-6-3,寿司若ビル2F,2021/9/16,山形市,38.24675118,140.3301825
〇,,京都鉄板焼　よしちゃん,キョウトテッパンヤキ　ヨシチャン,9900042,山形市七日町2-1-15,1F,2021/9/24,山形市,38.252438,140.3396086
〇,,清寿司,キヨズシ,9900039,山形市香澄町1-4-3,開沼ビル1F,2021/9/17,山形市,38.24834952,140.3293249
〇,,きよすみ食堂,キヨスミショクドウ,9900835,山形市やよい2-7-1,,2021/10/11,山形市,38.2553871,140.3101842
〇,,喜らく寿し,キラクズシ,9902301,山形市蔵王温泉954-7,,2021/7/5,山形市,38.16687375,140.3954616
〇,,KING KONG,キングコング,9900039,山形市香澄町1-5-10,船山ビル2F,2021/7/27,山形市,38.24807485,140.3301684
〇,,銀の海苔弁　山形北桧町店,ギンノノリベン　ヤマガタキタヒノキチョウテン,9900813,山形市桧町2-5-28,,2021/6/29,山形市,38.27578135,140.3321544
〇,,金平,キンペイ,9902341,山形市大字柏倉3823,,2021/10/7,山形市,38.23531043,140.2684918
〇,,金竜中国料理店,キンリュウチュウゴクリョウリテン,9900042,山形市七日町3-2-1,ポールスタービル,2021/12/14,山形市,38.25379557,140.3404251
〇,,喰処　金澤屋,クイドコロ　カナザワヤ,9900042,山形市七日町3-4-16,,2021/10/20,山形市,38.25504662,140.3428449
〇,,喰処　佐ぶ郎,クイドコロ　サブロウ,9900042,山形市七日町3-3-21,,2021/7/2,山形市,38.2545913,140.3422188
〇,,食処　よしだ,クイドコロ　ヨシダ,9900851,山形市上椹沢67,,2021/5/31,山形市,38.26483663,140.2940526
〇,,くいもの屋わん　山形店,クイモノヤワン　ヤマガタテン,9900039,山形市香澄町3-1-7,朝日生命山形ビル　B1F,2021/11/10,山形市,38.24696511,140.3308241
〇,,くおん-久遠-,クオン,9900042,山形市七日町3-5-34,大久保ビル1階北側,2021/10/14,山形市,38.25469311,140.3418213
〇,,串揚げやかた　郷,クシアゲヤカタ　ミヤコ,9900039,山形市香澄町2-10-10,,2021/8/11,山形市,38.2496124,140.3314402
〇,,串蔵みつる,クシクラミツル,9900043,山形市本町1-4-30,,2021/6/30,山形市,38.24960911,140.3368057
〇,,クラシックカフェ,クラシックカフェ,9900042,山形市七日町2-7-6,,2021/7/7,山形市,38.2530966,140.3399594
〇,,蔵膳屋（丸十大屋）,クラゼンヤ　マルジュウダイヤ,9900031,山形市十日町3-10-1,,2021/5/8,山形市,38.24310449,140.3336321
〇,,club avantgarde luxe ,クラブ　アヴァンギャルド　ラグゼ,9900039,山形市香澄町1-10-1,ホテルクラウンヒルズB1F,2021/7/9,山形市,38.24870543,140.3305676
〇,,CLUB CLOUD9,クラブ　クラウドナイン,9900039,山形市香澄町1-13-14,ブレス壱號館2F,2021/9/1,山形市,38.24954321,140.3302171
〇,,CLUB　Ｔ&S山形駅前店,クラブ　ティーアンドエス　ヤマガタエキマエテン,9900039,山形市香澄町1-10-1,朝日ビル2F,2021/7/8,山形市,38.2486949,140.3303155
〇,,クラブエアー,クラブエアー,9900039,山形市香澄町1-5-7,,2021/8/20,山形市,38.2481178,140.3300517
〇,,club Eden,クラブエデン,9900043,山形市本町2-3-20,,2021/6/4,山形市,38.2514,140.3398926
〇,,蔵舞たぬき,クラマイタヌキ,9900825,山形市城北町2-2-21,,2021/6/21,山形市,38.26031863,140.331479
〇,,グリーングラス,グリーングラス,9900039,山形市香澄町1-7-1,,2021/9/16,山形市,38.24860306,140.3293807
〇,,栗歩　山形店,クリホ　ヤマガタテン,9900042,山形市七日町3-2-1,,2021/11/15,山形市,38.2537803,140.3404694
〇,,くるまやラーメン山形13号店,クルマヤラーメンヤマガタジュウサンゴウテン,9902413,山形市南原町3-9-5,,2021/7/26,山形市,38.23250179,140.3448513
〇,,GRACE,グレイス,9900042,山形市七日町2-2-9,鈴木ビル1F南側,2021/6/28,山形市,38.2510532,140.3409909
〇,,credo,クレド,9902332,山形市飯田5-21-11,,2021/10/19,山形市,38.2106604,140.3274249
〇,,CLOVER,クローバー,9900043,山形市本町1-4-31,2F,2021/6/17,山形市,38.24941637,140.3368829
〇,,軽食・喫茶「ふれ愛」,ケイショクキッサフレアイ,9900832,山形市城西町2-2-22,,2021/11/12,山形市,38.2548154,140.3221841
〇,,ケーキハウスチュチュ,ケーキハウスチュチュ,9902464,山形市高堂1-8-1,,2021/10/13,山形市,38.2378828,140.3089988
〇,,県警察地下食堂,ケンケイサツチカショクドウ,9900023,山形市松波2-8-1,,2021/9/30,山形市,38.24037238,140.365074
〇,,ケンチャンラーメン山形,ケンチャンラーメンヤマガタ,9900831,山形市西田2-1-17,,2021/11/24,山形市,38.26295867,140.315398
〇,,県庁食堂（１階食堂）,ケンチョウショクドウ（イッカイショクドウ）,9900023,山形市松波2-8-1,,2021/9/30,山形市,38.24037027,140.363344
〇,,県庁食堂（議会サロン）,ケンチョウショクドウ（ギカイサロン）,9900023,山形市松波2-8-1,,2021/9/30,山形市,38.24011958,140.3625501
〇,,県庁食堂（レストラン16）,ケンチョウショクドウ（レストランジュウロク）,9900023,山形市松波2-8-1,,2021/9/30,山形市,38.24046928,140.3638536
〇,,KOS BAR,コーズバー,9900042,山形市七日町2-2-1,赤門ピアッザ2FA号,2021/8/2,山形市,38.25121782,140.3406336
〇,,コーヒーANDスナック　カフェ,コーヒーアンドスナック　カフェ,9900044,山形市木の実町14-4,,2021/10/21,山形市,38.2536599,140.334969
〇,,C&P CHA-CHA-CHA,コーヒーアンドパブ　チャチャチャ,9900881,山形市瀬波2-2-18,,2021/12/3,山形市,38.27853562,140.3050717
〇,,コーヒーレストラン真理,コーヒーレストランマリ,9900025,山形市あこや町3-1-7,,2021/5/19,山形市,38.24263246,140.3550699
〇,,極撰ラーメン・定食ひとりじ麺,ゴクセンラーメン・テイショクヒトリジメン,9902435,山形市青田5-15-14,,2021/10/4,山形市,38.2213134,140.3310191
〇,,CoCo,ココ,9900039,山形市香澄町1-13-16,YTビルパーレル2F,2021/6/22,山形市,38.2494184,140.3302871
〇,,ココス山形白山店,ココスヤマガタハクサンテン,9902446,山形市白山1-9-6,,2021/7/26,山形市,38.2279238,140.3199496
〇,,ココス山形馬見ヶ崎店,ココスヤマガタマミガサキテン,9900810,山形市馬見ヶ崎1-22-30,,2021/7/15,山形市,38.2833698,140.33356
〇,,ココス山形南原店,ココスヤマガタミナミハラテン,9902413,山形市南原町1-27-35,,2021/7/7,山形市,38.23549584,140.3461319
〇,,COCO夢や　ヨークベニマル落合店,ココユメヤ　ヨークベニマルオチアイテン,9900075,山形市落合町字二口189,,2021/6/29,山形市,38.28373569,140.3481491
〇,,個室ダイニング　カラオケ　バル,コシツダイニング　カラオケ　バル,9900039,山形市香澄町1-8-1 ,前田ビル地下1F,2021/9/9,山形市,38.248728,140.3290146
〇,,小太郎,コタロウ,9900042,山形市七日町2-1-14-6,屋台村,2021/7/28,山形市,38.2521425,140.3393829
〇,,コットン,コットン,9900039,山形市香澄町1-10-1,ホテルクラウンヒルズ山形1F,2021/7/20,山形市,38.24876441,140.3304657
〇,,コッペdeサンド,コッペデサンド,9902483,山形市上町1-10-5,,2021/8/11,山形市,38.2432866,140.320746
〇,,寿屋本店,コトブキヤホンテン,9900055,山形市相生町6-25,,2021/10/20,山形市,38.25892984,140.3388644
〇,,ごはん処　紅月,ゴハンドコロ　クゲツ,9900825,山形市城北町1-25-16,,2021/8/17,山形市,38.2600191,140.3292014
〇,,こぶ原,コブハラ,9900047,山形市旅籠町2-5-23,,2021/10/27,山形市,38.2560645,140.3388823
〇,,コメダ珈琲店　山形嶋南店,コメダコーヒーテン　ヤマガタシマミナミテン,9900886,山形市嶋南2-13-26,,2021/10/4,山形市,38.2815525,140.3208918
〇,,コメダ珈琲店　山形南館店,コメダコーヒーテン　ヤマガタミナミダテテン,9902465,山形市南館西1-1,,2021/10/4,山形市,38.23832771,140.3053997
〇,,小料理　会田,コリョウリ　アイタ,9900057,山形市宮町4-4-37,,2021/6/2,山形市,38.2650904,140.3411107
〇,,心料理　美菜味,コリョウリ　ミナミ,9900861,山形市江俣5-8-27,,2021/11/22,山形市,38.2792521,140.3137762
〇,,コルシェント（coruscent）,コルシェント,9902435,山形市青田2-4-17,,2021/7/1,山形市,38.225935,140.3334641
〇,,The Brilliant Space LOL,ザ　ブリリアントスペース　エルオーエル,9900047,山形市旅篭町2-2-26,庄司ビル1F,2021/6/23,山形市,38.25415257,140.3391945
〇,,THE BROADWAY,ザ　ブロードウェイ,9900039,山形市香澄町1-6-10,佐五郎ビル2F,2021/10/19,山形市,38.24832784,140.3302575
〇,,蔵王温泉ジンギスカンひつじ苑,ザオウオンセンジンギスカンヒツジエン,9900039,山形市香澄町1-11-16,,2021/10/14,山形市,38.2493484,140.3307852
〇,,蔵王カントリークラブ　レストラン,ザオウカントリークラブ　レストラン,9902303,山形市蔵王上野2842-1,,2021/11/12,山形市,38.1755565,140.3140993
〇,,蔵王中央ロープウェイ　レストハウス102,ザオウチュウオウロープウェイ　レストハウスイチマルニ,9902301,山形市蔵王温泉940-1,,2021/10/27,山形市,38.16580888,140.4150399
〇,,栄屋本店,サカエヤホンテン,9900043,山形市本町2-3-21,,2021/6/24,山形市,38.2514032,140.3399829
〇,,酒蔵　澤正宗,サカグラ　サワマサムネ,9900039,山形市香澄町1-1-1,エスパル山形 1F,2021/9/7,山形市,38.24850716,140.327985
〇,,肴菜や　くに蔵,サカナヤ　クニクラ,9900039,山形市香澄町2-11-1,,2021/8/3,山形市,38.24981235,140.3315742
〇,,酒場ハレルヤ,サカバハレルヤ,9900042,山形市七日町2-4-12,,2021/11/29,山形市,38.2524816,140.3415082
〇,,酒蓋屋　けん,サカブタヤ　ケン,9900042,山形市七日町3-3-39,大黒屋ビル2F,2021/10/6,山形市,38.25312504,140.3419305
〇,,瑳蔵,サクラ,9900043,山形市本町2-4-26,,2021/11/2,山形市,38.25159262,140.3392007
〇,,茶蔵　山形店,サクラ　ヤマガタテン,9902339,山形市成沢西1-5-6,,2021/7/5,山形市,38.2113766,140.3147245
〇,,茶蔵茶房　霞城セントラル店,サクラサボウ　カジョウセントラルテン,9900827,山形市城南町1-1-1,,2021/5/8,山形市,38.24968015,140.3266018
〇,,酒処はなまつり,サケドコロハナマツリ,9900042,山形市七日町2-3-30,,2021/7/28,山形市,38.2514184,140.3405356
〇,,SAKE BAR ねノコク,サケバーネノコク,9900047,山形市旅篭町2-2-25,,2021/7/30,山形市,38.25412546,140.3394244
〇,,笹谷高原荘,ササヤコウゲンソウ,9900016,山形市関沢318,,2021/8/2,山形市,38.2266677,140.4424878
〇,,札幌ラーメン　どさんこ,サッポロラーメン　ドサンコ,9900039,山形市香澄町1-9-13,,2021/10/1,山形市,38.24862503,140.3299935
〇,,さむらい,サムライ,9900042,山形市七日町4-11-4,ナイトイン花小路,2021/7/8,山形市,38.25389291,140.3442144
〇,,三幸,サンコウ,9902445,山形市南栄町2-12-19,,2021/10/25,山形市,38.23171701,140.3188097
〇,,三十三間堂（山形七日町ワシントンホテル）,サンジュウサンゲンドウヤマガタナノカマチワシントンホテル,9900042,山形市七日町1-4-31,,2021/5/8,山形市,38.25355528,140.3390277
〇,,サントリーバー　ライズ,サントリーバー　ライズ,9900039,山形市香澄町1-7-8,,2021/7/27,山形市,38.24848827,140.3299241
〇,,さんろくまる,サンロクマル,9900042,山形市七日町2-1-19,,2021/5/8,山形市,38.25234558,140.3400597
〇,,シェ・ナカガワ,シェ　ナカガワ,9902491,山形市あずま町3-19,,2021/7/27,山形市,38.23868009,140.3386977
〇,,自家製麺　鶏冠　,ジカセイメン　トサカ,9900023,山形市松波1-8-33,,2021/10/11,山形市,38.23713404,140.3562468
〇,,四季　日本料理　いばら木,シキ　ニホンリョウリ　イバラキ,9902435,山形市青田1-1-5,,2021/7/27,山形市,38.22608705,140.328161
〇,,四季彩　いし蔵,シキサイ　イシグラ,9900039,山形市香澄町1-6-6,,2021/8/2,山形市,38.24837097,140.3304216
〇,,四季亭　よし田,シキテイヨシダ,9900039,山形市香澄町1-15-24,,2021/8/3,山形市,38.25001977,140.3296941
〇,,四季の味　やま吹き,シキノアジ　ヤマブキ,9900042,山形市七日町4-15-38,,2021/10/27,山形市,38.25424245,140.3437598
〇,,四季を揚げる　くしふらい　串幸　,シキヲアゲル　クシフライ　クシコウ,9900042,山形市七日町1-2-48,,2021/12/14,山形市,38.25210171,140.3376092
〇,,四山楼,シサンロウ,9900042,山形市七日町2-6-4,,2021/6/23,山形市,38.25289343,140.3413191
〇,,GIGI COFFEE BAR,ジジ　コーヒーバー,9002431,山形市松見町20-14,2F,2021/11/22,山形市,38.23240166,140.3402029
〇,,七輪焼もっちゃん,シチリンヤキモッチャン,9900042,山形市七日町2-1-14-6,,2021/9/29,山形市,38.2521425,140.3393829
〇,,地鶏 割烹　かわしま,ジドリカッポウカワシマ,9900042,山形市七日町3-2-25,北斗ビル1F,2021/7/6,山形市,38.25371145,140.3412171
〇,,シベールファクトリーメゾン　シベールズカフェ,シベールファクトリーメゾン　シベールズカフェ,9902338,山形市蔵王松ケ丘2-1-3,,2021/6/28,山形市,38.1938008,140.3114296
〇,,じゃいあん食堂駅前店,ジャイアンショクドウエキマエテン,9990039,山形市香澄町1-4-7,清野ビル1F,2021/7/21,山形市,38.24813296,140.3296655
〇,,じゃいあん食堂2510,ジャイアンショクドウニイゴウイチゼロ,9990039,山形市香澄町1-11-20,1F,2021/7/21,山形市,38.24904824,140.3307783
〇,,ジャズ喫茶　OCTET,ジャズキッサ　オクテット,9900038,山形市幸町5-8,,2021/11/22,山形市,38.2470803,140.3283176
〇,,JAZZBAR　扇亭,ジャズバー　オウギテイ,9900039,山形市香澄町1-4-3,開沼ビル3F-C,2021/10/5,山形市,38.24837269,140.3293906
〇,,ジャニス,ジャニス,9900042,山形市七日町2-4-1,,2021/7/30,山形市,38.2523347,140.3410641
〇,,しゃぶ葉山形馬見ヶ崎店,シャブヨウヤマガタマミガサキテン,9900810,山形市馬見ケ崎3-20-18,,2021/8/19,山形市,38.28333533,140.3262317
〇,,十一屋レストラン　桜田アベニュー店,ジュウイチヤレストラン　サクラダアベニューテン,9902323,山形市桜田東2-13-22,,2021/7/7,山形市,38.2187547,140.3237524
〇,,十一屋レストラン　七日町本店,ジュウイチヤレストラン　ナノカマチホンテン,9900042,山形市七日町1-4-32,,2021/7/5,山形市,38.25331438,140.3391285
〇,,時遊館山形駅前店,ジユウカン　ヤマガタエキマエテン,9900039,山形市香澄町1-3-14,サンビル2F,2021/10/6,山形市,38.2479646,140.3293872
〇,,時遊館　山形西バイパス店,ジユウカン　ヤマガタニシバイパステン,9902481,山形市あかねケ丘3-19-7,,2021/10/7,山形市,38.2418058,140.3071385
〇,,時遊館　山形平清水店,ジユウカン　ヤマガタヒラシミズテン,9902402,山形市小立2-1-66,,2021/10/8,山形市,38.2310782,140.3434358
〇,,酒縁　しょう榮,シュエン　ショウエイ,9900042,山形市七日町1-4-29,伊勢ビル2Ｆ,2021/11/15,山形市,38.25371284,140.3392167
〇,,酒菜芸竹,シュサイゲイチク,9900032,山形市小姓町9-2,光小路1F,2021/8/3,山形市,38.24763954,140.3393623
〇,,ジュピア　チアリー,ジュピア　チアリー,9902301,山形市蔵王温泉18,,2021/12/13,山形市,38.170255,140.3979562
〇,,趣味の部屋,シュミノヘヤ,9902175,山形市大字中野目140,,2021/6/23,山形市,38.3334824,140.3133699
〇,,酒楽　たき,シュラク　タキ,9900810,山形市馬見ヶ崎3-3-1,,2021/7/1,山形市,38.27898054,140.3252057
〇,,春香苑　鈴川店,シュンコウエン　スズカワテン,9900062,山形市鈴川町3-4-13,,2021/11/5,山形市,38.26962402,140.3580687
〇,,春香苑　南一番町店,シュンコウエン　ミナミイチバンチョウテン,9902441,山形市南一番町2-7,,2021/11/4,山形市,38.2340515,140.3285446
〇,,旬菜居酒屋　ととな,シュンサイイザカヤ　トトナ,9900821,山形市北町3-10-11,,2021/11/10,山形市,38.27190166,140.3244455
〇,,旬菜四季　ひろぜん,シュンサイシキ　ヒロゼン,9900827,山形市城南町1-1-1,霞城セントラル24F,2021/7/21,山形市,38.25001296,140.3266018
〇,,旬菜四季　漣,シュンサイシキ　レン,9900075,山形市落合町175-1,,2021/7/12,山形市,38.2821812,140.3499094
〇,,旬を楽しく和み飯てる,シュンヲタノシクナゴミメシテル,9902461,山形市南館2-2-2,,2021/10/6,山形市,38.2393105,140.3145424
〇,,JOYSOUND山形店,ジョイサウンドヤマガタテン,9900039,山形市香澄町1-8-8,山形第一ビル　B1F,2021/11/24,山形市,38.2487056,140.3292258
〇,,昭和ホルモン亭　青田店,ショウワホルモンテイ　アオタテン,9902435,山形市青田5-1-8,,2021/7/14,山形市,38.22343257,140.3267024
〇,,昭和ホルモン亭　駅前大通り店,ショウワホルモンテイ　エキマエオオドオリテン,9900039,山形市香澄町2-2-43,,2021/9/2,山形市,38.2475881,140.3304545
〇,,昭和ホルモン亭　山形嶋店,ショウワホルモンテイ　ヤマガタシマテン,9900885,山形市嶋北2-22-3,,2021/8/26,山形市,38.28898246,140.3194532
〇,,食彩播,ショクサイバン,9902313,山形市香澄町2-5-16,,2021/9/8,山形市,38.24798155,140.3317775
〇,,食堂万咲,ショクドウマンサク,9900801,山形市天神町135-1,,2021/6/23,山形市,38.3087184,140.326507
〇,,ジョニー・ビー,ジョニー・ビー,9900039,山形市香澄町1-4-3,開沼ビル2F,2021/10/1,山形市,38.24839059,140.3293343
〇,,BAR白岩,シライワ,9900042,山形市七日町2-3-22,高橋ビル三番館1F,2021/6/1,山形市,38.25150087,140.341077
〇,,白い森,シロイモリ,9900042,山形市七日町4-15-38,,2021/8/10,山形市,38.25425456,140.3437242
〇,,白木屋　山形駅前店,シロキヤ　ヤマガタエキマエテン,9900038,山形市幸町1-2,駅南ビル1F,2021/10/28,山形市,38.24761198,140.3286304
〇,,城西金ちゃんラーメン,シロニシキンチャンラーメン,9900832,山形市城西町5-30-25,,2021/7/9,山形市,38.2625375,140.3140875
〇,,ジンギスカン・シロー,ジンギスカン・シロー,9902305,山形市蔵王半郷266-10,,2021/8/2,山形市,38.18893018,140.3163982
〇,,スイーツバー　レリナス,スイーツバー　レリナス,9900042,山形市七日町2-1-14-6,,2021/11/29,山形市,38.2521425,140.3393829
〇,,スーパー銭湯テルメ,スーパーセントウテルメ,9902413,山形市南原町1-26-9,,2021/5/28,山形市,38.23586061,140.3469928
〇,,SOUP CURRY SPICE PICCA,スープカレースパイスピッカ,9900821,山形市北町3-1-1,,2021/10/11,山形市,38.27145846,140.3294497
〇,,寿司　いすゞ,スシ　イスズ,9900073,山形市大野目1-12-2,,2021/7/12,山形市,38.27713667,140.3586491
〇,,寿司・割烹　三桝,スシ　カッポウ　ミマス,9900042,山形市七日町2-3-7,,2021/7/8,山形市,38.2518648,140.3406578
〇,,寿司　健,スシ　ケン,9900057,山形市宮町3-6-32,,2021/6/16,山形市,38.2698852,140.3382187
〇,,寿司割烹　あい田,スシカッポウ　アイダ,9900031,山形市十日町1-2-15,,2021/10/26,山形市,38.2471517,140.3348683
〇,,すし源,スシゲン,9900023,山形市松波2-6-56,,2021/5/28,山形市,38.24168095,140.3614271
〇,,鮨善,スシゼン,9900834,山形市清住町3-4-11,,2021/10/8,山形市,38.25235777,140.3131389
〇,,寿し処つかさ,スシドコロツカサ,9900042,山形市七日町4-16-25,,2021/6/3,山形市,38.25463025,140.3434276
〇,,寿司 まるでん,スシマルデン,9900042,山形市七日町4-5-3,,2021/8/6,山形市,38.25253724,140.3441848
〇,,寿し若,スシワカ,9900039,山形市香澄町3-6-3,,2021/6/22,山形市,38.24669957,140.3301504
〇,,寿司和食　㐂扇,スシワショク　キセン,9900034,山形市東原町4-17-18,,2021/9/22,山形市,38.2439594,140.3475175
〇,,スターバックスコーヒー 山形県立中央病院店,スターバックスコーヒー ヤマガタケンリツチュウオウビョウインテン,9902292,山形市青柳1800,山形県立中央病院,2021/10/12,山形市,38.30025223,140.3465386
〇,,すっばらしい,スッバラシイ,9900881,山形市瀬波3-7-42,,2021/6/23,山形市,38.28323977,140.3082832
〇,,ステイインカフェ,ステイインカフェ,9900042,山形市七日町2-7-10,,2021/8/5,山形市,38.25368718,140.3396765
〇,,ステーキ・アロワイヨー,ステーキ・アロワイヨー,9900039,山形市香澄町2-5-1,三栄本社ビル2Ｆ,2021/10/14,山形市,38.24817871,140.3306217
〇,,ステーキ宮　山形西店,ステーキミヤ　ヤマガタニシテン,9902464,山形市高堂2-2-25,,2021/8/3,山形市,38.23984327,140.3071873
〇,,スナック　藍,スナック　アイ,9900042,山形市七日町2-4-12,,2021/7/28,山形市,38.2524816,140.3415082
〇,,スナック　アモーレ,スナック　アモーレ,9900042,山形市七日町4-15-2,,2021/7/9,山形市,38.2543837,140.3435441
〇,,スナック　いなほ,スナック　イナホ,9902331,山形市飯田西4-4-17,,2021/6/28,山形市,38.21535115,140.321893
〇,,スナック　エメラルド,スナック　エメラルド,9900039,山形市香澄町1-4-3,開沼ビル2Ｆ,2021/7/29,山形市,38.24834583,140.3293946
〇,,スナック　カルネ,スナック　カルネ,9900042,山形市七日町4-1-30,,2021/7/26,山形市,38.2519858,140.3420291
〇,,スナック　Kiss,スナック　キス,9900042,山形市七日町3-2-24,YT3丁目ビル2F,2021/7/8,山形市,38.25380774,140.341315
〇,,スナック　木の実,スナック　キノミ,9900039,山形市香澄町1-10-1,ホテルクラウンヒルズ山形1F,2021/7/9,山形市,38.24860853,140.3302994
〇,,スナック　気まぐれ,スナック　キマグレ,9900039,山形市香澄町1-9-1,,2021/8/16,山形市,38.24882421,140.3294826
〇,,スナック　ゴシップ,スナック　ゴシップ,9900039,山形市香澄町1-9-11,本田屋ビル1F,2021/8/19,山形市,38.24868914,140.330075
〇,,スナック　ごんの字,スナック　ゴンノジ,9900042,山形市七日町4-16-25,,2021/6/18,山形市,38.25468607,140.3432855
〇,,スナック　Sachiko,スナック　サチコ,9900042,山形市七日町4-15-34,,2021/6/18,山形市,38.25407826,140.3441785
〇,,スナック　シルクロード,スナック　シルクロード,9900032,山形市小姓町9-24,,2021/6/8,山形市,38.24752088,140.3394341
〇,,スナック　セジュール,スナック　セジュール,9900031,山形市十日町1-1-35,,2021/6/10,山形市,38.24668478,140.333408
〇,,スナック  月ほたる,スナック　ツキホタル,9900042,山形市七日町3-3-43,王城ビル4F,2021/6/10,山形市,38.25328823,140.3415322
〇,,スナック　トパーズ,スナック　トパーズ,9900039,山形市香澄町1-7-7,,2021/6/7,山形市,38.24856249,140.3298407
〇,,スナック　どんぐり,スナック　ドングリ,9900042,山形市七日町4-6-4,,2021/10/13,山形市,38.25343839,140.3439744
〇,,スナック　にじ,スナック　ニジ,9900042,山形市七日町4-15-41,,2021/7/21,山形市,38.2543012,140.3433394
〇,,スナック　ニューマリーナ,スナック　ニューマリーナ,9900042,山形市七日町4-6-4,,2021/7/19,山形市,38.25347735,140.3439087
〇,,Snack Paki,スナック　パキ,9900042,山形市七日町2-3-13,,2021/7/20,山形市,38.25203465,140.3409204
〇,,スナック　ふぁみりー,スナック　ファミリー,9902313,山形市大字松原371,,2021/7/5,山形市,38.2057732,140.3055788
〇,,スナック　ファレノプシス,スナック　ファレノプシス,9900042,山形市七日町3-3-43,王城ビル2F,2021/5/27,山形市,38.25327296,140.3417032
〇,,スナック　平成,スナック　ヘイセイ,9900042,山形市七日町4-15-34,,2021/6/18,山形市,38.25403297,140.3442107
〇,,スナック　ベスト,スナック　ベスト,9900039,山形市香澄町1-4-5,マルイビル3F　302,2021/8/20,山形市,38.24833217,140.3294975
〇,,スナック　ほほえみ,スナック　ホホエミ,9900039,山形市香澄町1-4-3,開沼ビル2F,2021/7/21,山形市,38.24831055,140.3293437
〇,,スナック　ホワイトバンビ,スナック　ホワイトバンビ,9900042,山形市七日町4-15-41,,2021/7/7,山形市,38.25424854,140.3433917
〇,,スナック　麻輪馬,スナック　マリンバ,9900042,山形市七日町3-3-21,三平ビル1F,2021/11/8,山形市,38.25451337,140.3424562
〇,,スナック　や・や,スナック　ヤ・ヤ,9900039,山形市香澄町1-7-4,B1-C,2021/10/19,山形市,38.24860613,140.3295046
〇,,SNACK yumi,スナック　ユミ,9900039,山形市香澄町1-9-17,武田ビル1F　,2021/11/5,山形市,38.2487325,140.3298151
〇,,スナック　来一華,スナック　ライカ,9900039,山形市香澄町1-7-11,タンノビル2F,2021/6/23,山形市,38.2483495,140.3299048
〇,,すなっく　Ravi(ラヴィ),スナック　ラヴィ,9900042,山形市七日町2-7-24,会津屋ビル2F,2021/8/4,山形市,38.2533395,140.3408863
〇,,スナック　らぱん,スナック　ラパン,9900042,山形市七日町2-6-11,,2021/11/2,山形市,38.2530812,140.3416469
〇,,スナック　ラブリー,スナック　ラブリー,9900039,山形市香澄町1-9-17,春日井ビル2F,2021/5/19,山形市,38.24876041,140.3298185
〇,,すなっく　りっぷ,スナック　リップ,9900039,山形市香澄町1-13-17,YT一丁目ビル1F,2021/10/14,山形市,38.24931297,140.3302805
〇,,スナック　Watanabe,スナック　ワタナベ,9900042,山形市七日町4-15-38,花の小みちビル1F,2021/8/2,山形市,38.25423613,140.3438832
〇,,スナック晃子,スナックアキコ,9900032,山形市小姓町9-24,,2021/6/29,山形市,38.24737448,140.3394516
〇,,スナック恵美里,スナックエミリ,9900042,山形市七日町3-2-25,北斗ビル2F,2021/11/2,山形市,38.25366301,140.3412694
〇,,スナック忍路,スナックオショロ,9900039,山形市香澄町1-7-1,,2021/6/11,山形市,38.24854092,140.3293129
〇,,すなっく可否道,スナックカヒドウ,9900039,山形市香澄町1-4-5,マルイビル3F,2021/10/22,山形市,38.2482753,140.3294304
〇,,スナック喫茶　パルティア,スナックキッサ　パルティア,9902435,山形市青田5-7-6,,2021/10/11,山形市,38.2227676,140.3293052
〇,,スナックcat,スナックキャット,9900039,山形市香澄町1-7-11,タンノビル1F,2021/9/14,山形市,38.2483732,140.3299095
〇,,スナック　圭,スナックケイ,9900042,山形市七日町5-10-19,YTビル1F,2021/7/6,山形市,38.2517541,140.3421114
〇,,スナック上海美人,スナックシャンハイビジン,9900039,山形市香澄町1-9-11,3F,2021/6/11,山形市,38.24865386,140.3300662
〇,,スナックSugar,スナックシュガー,9900039,山形市香澄町1-9-17,春日井ビル3F,2021/8/17,山形市,38.24877568,140.3298332
〇,,スナックセブン,スナックセブン,9900042,山形市七日町2-3-9,ライトロード七日町ビル2F,2021/9/6,山形市,38.25216702,140.3406485
〇,,スナック　大使館,スナックタイシカン,9902483,山形市上町1-1-86,,2021/7/1,山形市,38.2429823,140.3244262
〇,,スナック大連,スナックダイレン,9900039,山形市香澄町1-7-11,,2021/5/8,山形市,38.24836056,140.3299484
〇,,スナックでわ,スナックデワ,9902172,山形市千手堂85-7,,2021/8/17,山形市,38.3078368,140.3402779
〇,,スナック十九,スナックトク,9900045,山形市桜町1-19,オーパス桜町1F,2021/10/18,山形市,38.25150814,140.3295276
〇,,スナックのうぶる,スナックノウブル,9900031,山形市十日町2-5-33,1F,2021/6/24,山形市,38.2480522,140.3392303
〇,,スナックひらめ,スナックヒラメ,9900039,山形市香澄町1-4-1,伊東ビル　1F,2021/11/4,山形市,38.2483268,140.3292288
〇,,スナックふじ,スナックフジ,9900042,山形市七日町4-16-31,,2021/6/8,山形市,38.2542674,140.3429654
〇,,スナックふれんず,スナックフレンズ,9900039,山形市香澄町1-9-18,,2021/11/24,山形市,38.2487506,140.329758
〇,,スナック美おん,スナックミオン,9900039,山形市香澄町1-4-6,弍番館ビル　2F,2021/10/14,山形市,38.24819822,140.3295731
〇,,スナックYOU,スナックユウ,9900042,山形市七日町3-2-24,YT三丁目ビル1F,2021/7/20,山形市,38.2537951,140.3412372
〇,,スナック夕月,スナックユウヅキ,9902161,山形市大字漆山1103-5,,2021/7/2,山形市,38.31188478,140.3571721
〇,,スナック梨香,スナックリンカ,9900861,山形市江俣5-3-38,,2021/10/4,山形市,38.2788888,140.3140464
〇,,スナックルージュ,スナックルージュ,9900042,山形市七日町3-3-37,酒井ビル2F,2021/7/6,山形市,38.2534018,140.3420822
〇,,スナック恋華,スナックレンカ,9900039,山形市香澄町1-9-8,,2021/10/5,山形市,38.2487845,140.3300244
〇,,すのこの湯　かわらや,スノコノユ　カワラヤ,9902301,山形市蔵王温泉43,,2021/8/16,山形市,38.16765515,140.3973344
〇,,スペース天,スペーステン,9900042,山形市七日町2-3-1,共栄ビル3Ｆ,2021/8/5,山形市,38.2515033,140.3401969
〇,,スポセン食堂　あすりーと,スポセンショクドウ　アスリート,9900075,山形市落合1,,2021/9/3,山形市,38.2816033,140.3491926
〇,,炭火酒菜　〇剛,スミビシュサイ　マルゴウ,9990039,山形市香澄町1-11-20,2F,2021/7/21,山形市,38.24896398,140.3307448
〇,,炭火焼　たつきち,スミビヤキ　タツキチ,9900039,山形市香澄町1-15-5,,2021/7/19,山形市,38.24945963,140.3291665
〇,,炭火焼肉のんきや,スミビヤキニクノンキヤ,9900863,山形市江南4-2-34,,2021/9/3,山形市,38.274318,140.3140353
〇,,炭火焼肉 meat meet,スミビヤキニクミートミート,9902317,山形市みはらしの丘2-14-4,,2021/8/25,山形市,38.19204768,140.290789
〇,,炭火焼干物居酒屋　やまぎし,スミビヤキヒモノイザカヤ　ヤマギシ,9900042,山形市七日町2-3-9,ライトロードin七日町1F,2021/8/25,山形市,38.25215122,140.3406002
〇,,SLOWJAM,スロージャム,9900039,山形市香澄町2-8-1,1F,2021/9/8,山形市,38.2483254,140.3324765
〇,,C'est quoi?,セ　コワ？,9900031,山形市本町2-1-48,,2021/11/16,山形市,38.2485268,140.3379965
〇,,西洋割烹　七日町　しば田,セイヨウカッポウ　ナノカマチ　シバタ,9900042,山形市七日町2-7-25,,2021/10/15,山形市,38.25326052,140.3410118
〇,,西洋料理TANAKA,セイヨウリョウリ　タナカ,9900042,山形市七日町2-1-3,プラザビル七日町2F,2021/7/2,山形市,38.2521698,140.338923
〇,,0035 BY KIYOKAWAYA,ゼロゼロサンゴー　バイ　キヨカワヤ,9900828,山形市双葉町1-2-38,山形県総合文化芸術館（やまぎん県民ホール）1F,2021/7/7,山形市,38.24774272,140.3250821
〇,,ZEN,ゼン,9902413,山形市南原町3-7-20,,2021/7/20,山形市,38.2335467,140.3443061
〇,,仙臺ホルモン牛タン焼肉　べろきん,センダイホルモンギュウタンヤキニク　ベロキン,9900039,山形市香澄町2-10-8,,2021/7/20,山形市,38.24935576,140.3312851
〇,,せんたろう,センタロウ,9900039,山形市香澄町1-21-28,,2021/8/24,山形市,38.249647,140.3311135
〇,,千年の宴　山形駅前店,センネンノウタゲ　ヤマガタエキマエテン,9900039,山形市香澄町1-15-28,ホテルニュー最上屋1F,2021/10/15,山形市,38.24963446,140.3294167
〇,,創食厨房　橋本屋,ソウショクチュウボウ　ハシモトヤ,9900047,山形市旅篭町2-2-25,,2021/7/30,山形市,38.25415548,140.3395357
〇,,続おそばに,ゾクオソバニ,9900038,山形市幸町5-20,,2021/5/8,山形市,38.24671955,140.3278289
〇,,そばいしやま,ソバイシヤマ,9900031,山形市十日町3-9-30,,2021/11/2,山形市,38.24203138,140.3358861
〇,,そば・うどん　呑み処　きのくにや,ソバウドンノミドコロキノクニヤ,9902331,山形市飯田西1-2-28,,2021/6/16,山形市,38.2166896,140.3220704
〇,,そば・会席料理　なかや,ソバカイセキリョウリ　ナカヤ,9902453,山形市若宮1-9-21,,2021/9/3,山形市,38.22723954,140.3110537
〇,,そばくい亭,ソバクイテイ,9900042,山形市七日町2-7-36,,2021/9/14,山形市,38.25253265,140.3405142
〇,,そば処　あかね,ソバドコロ　アカネ,9902481,山形市あかねケ丘1-3-27,,2021/11/29,山形市,38.25080374,140.3097609
〇,,そば処　いでは,ソバドコロ　イデハ,9902447,山形市元木1-1-14,,2021/6/7,山形市,38.2275045,140.3270804
〇,,そば処　さかい,ソバドコロ　サカイ,9900043,山形市本町1-7-34,,2021/7/30,山形市,38.25105732,140.337765
〇,,そば処　さくら,ソバドコロ　サクラ,9902321,山形市桜田西1-4-31,,2021/8/10,山形市,38.2221557,140.3186102
〇,,そば処　庄司屋　御殿堰七日町店,ソバドコロ　ショウジヤ　ゴテンゼキナノカマチテン,9900042,山形市七日町2-7-6,,2021/9/17,山形市,38.25317032,140.3397127
〇,,そば処　庄司屋　幸町本店,ソバドコロ　ショウジヤ　サイワイチョウホンテン,9900038,山形市幸町14-28,,2021/9/28,山形市,38.2429403,140.3259512
〇,,そば処　正平,ソバドコロ　ショッペ,9900861,山形市江俣4-18-23,,2021/6/14,山形市,38.2781305,140.3174188
〇,,そば処　すぎ,ソバドコロ　スギ,9902402,山形市小立2-5-8,,2021/7/20,山形市,38.22906102,140.3429651
〇,,そば処　寿ゞ㐂総本店,ソバドコロ　スズキソウホンテン,9900057,山形市宮町5-9-8,,2021/10/25,山形市,38.2641676,140.33726
〇,,そば処　竹むら,ソバドコロ　タケムラ,9902484,山形市篭田2-4-16,,2021/7/8,山形市,38.23864959,140.319305
〇,,そば処　ひろ,ソバドコロ　ヒロ,9900885,山形市嶋北3-10-8,,2021/7/15,山形市,38.29026099,140.3202473
〇,,そば処　三な花,ソバドコロ　ミナカ,9902413,山形市南原町2-6-18,,2021/10/6,山形市,38.23548114,140.3433579
〇,,蕎麦處みねた,ソバドコロ　ミネタ,9900832,山形市城西町2-1-40,,2021/12/8,山形市,38.25302186,140.3223221
〇,,そば処・郷土料理　紅山水,ソバドコロ・キョウドリョウリ　ベニサンスイ,9900031,山形市十日町2-1-8,,2021/6/1,山形市,38.24670177,140.3356561
〇,,そば処かつら北町分店,ソバドコロカツラキタマチブンテン,9900813,山形市桧町4-5-18,,2021/7/12,山形市,38.2762875,140.3249592
〇,,蕎麦処かねひろ,ソバドコロカネヒロ,9993125,山形市成沢西1-1-42,,2021/6/29,山形市,38.21339762,140.3142803
〇,,そば処さい藤,ソバドコロサイトウ,9900061,山形市五十鈴3-11-55,,2021/12/7,山形市,38.2755201,140.3576416
〇,,そば処つる福,ソバドコロツルフク,9902445,山形市南栄町3-9-25,,2021/10/13,山形市,38.22967223,140.3208448
〇,,蕎麦処ふるさわ,ソバドコロフルサワ,9902363,山形市長谷堂473,,2021/7/21,山形市,38.21292221,140.2632713
〇,,そば処三津屋エスパル山形店,ソバドコロミツヤエスパルヤマガタテン,9900031,山形市香澄町1-1-1,エスパル山形1F,2021/10/25,山形市,38.24854507,140.3278844
〇,,そば処三津屋出羽路庵,ソバドコロミツヤデワジアン,9900031,山形市十日町1-1-26,,2021/10/25,山形市,38.24649443,140.3338937
〇,,そば処三津屋本店,ソバドコロミツヤホンテン,9902483,山形市上町1-1-75,,2021/10/25,山形市,38.2430482,140.3233637
〇,,そば処ヤマモ,ソバドコロヤマモ,9900023,山形市松波4-1-7,,2021/8/18,山形市,38.23850104,140.3626729
〇,,そば屋惣右ェ門,ソバヤソウエモン,9900003,山形市早乙女1,,2021/7/29,山形市,38.27394745,140.3604854
〇,,そば遊膳にへい,ソバユウゼンニヘイ,9900854,山形市砂塚1189-2,,2021/6/11,山形市,38.2611515,140.3060235
〇,,Thai cuisine シーロム,タイクイジーン　シーロム,9900042,山形市七日町3-3-4,,2021/10/22,山形市,38.2536556,140.3414699
〇,,大衆酒場みつ星餃子　山形駅前店,タイシュウサカバミツボシギョウザ　ヤマガタエキマエテン,9900039,山形市香澄町1-7-12,,2021/10/5,山形市,38.24844863,140.3298238
〇,,第二公園山長,ダイニコウエンヤマチョウ,9900031,山形市十日町4-3-8,,2021/11/1,山形市,38.24501292,140.3337279
〇,,Dining　美ら海,ダイニング　チュラウミ,9902214,山形市大字青柳1578-3,,2021/10/4,山形市,38.3010355,140.3493725
〇,,Dining Bar 八陽館,ダイニングバー　ハチメイカン,9900043,山形市本町2-4-18,ハイデンスニーズビル1F,2021/10/14,山形市,38.25171556,140.3386823
〇,,ダイニングBar　郷,ダイニングバー　ミヤコ,9900039,山形市香澄町2-10-10,,2021/8/11,山形市,38.24956501,140.3314127
〇,,大漁船,タイリョウブネ,9900039,山形市香澄町2-1-1,地下,2021/6/14,山形市,38.24775367,140.3304319
〇,,台湾料理　紅四季,タイワンリョウリ　コシキ,9902321,山形市桜田西2-7-8,,2021/9/30,山形市,38.21915003,140.3162262
〇,,立ち飲み　円,タチノミ　エン,9900039,山形市香澄町1-6-1,,2021/12/14,山形市,38.24827867,140.3300471
〇,,立ち呑み酒場　招き豚,タチノミサカバ　マネキブタ,9900039,山形市香澄町2-5-1,1F,2021/6/23,山形市,38.24813764,140.3306459
〇,,ダディ,ダディ,9900039,山形市香澄町1-7-1,藤田ビル2F,2021/9/14,山形市,38.24853618,140.3293619
〇,,食べ処　うめくら,タベドコロ　ウメクラ,9900042,山形市七日町4-1-13,,2021/9/6,山形市,38.2528618,140.342288
〇,,田村うなぎや,タムラウナギヤ,9900057,山形市宮町5-9-52,,2021/5/27,山形市,38.2634383,140.3370722
〇,,だるまやラーメン南二番町店,ダルマヤラーメンミナミニバンチョウテン,9902442,山形市南二番町5-4,,2021/5/31,山形市,38.22975791,140.3274995
〇,,太郎’s BAR ライラ,タロウズバーライラ,9900039,山形市香澄町1-4-13,船山ビル3F,2021/7/9,山形市,38.2481721,140.3294783
〇,,たわら,タワラ,9900827,山形市城南町1-9-12,,2021/6/28,山形市,38.25116489,140.3261161
〇,,担々麵とたれ唐の店　くじら,タンタンメントタレカラノミセ　クジラ,9902414,山形市寿町10-35,,2021/8/30,山形市,38.23524915,140.3367162
〇,,丹野こんにゃく　ぐっと山形店,タンノコンニャク　グットヤマガタテン,9902303,山形市表蔵王68,山形県観光物産会館内,2021/11/4,山形市,38.19023765,140.3124984
〇,,Chie cafe,チーカフェ,9902317,山形市みはらしの丘2-14-3,モンソレイユB,2021/7/14,山形市,38.19223298,140.2908094
〇,,Ｃｈｅｄｅｔｔｅ,チェデッテ,9902307,山形市表蔵王68,山形県観光物産会館内,2021/12/2,山形市,38.18996887,140.3127089
〇,,チェデッ亭,チェデッテイ,9900828,山形市双葉町2-1-75,,2021/8/3,山形市,38.25034504,140.3218768
〇,,CHICKEN HOUSE,チキン　ハウス,9900042,山形市七日町2-1-3,プラザビル七日町2F,2021/6/22,山形市,38.2521698,140.338923
〇,,チャーリーブラウン,チャーリーブラウン,9900039,山形市香澄町1-5-1,大宝ビル2F,2021/10/15,山形市,38.24774935,140.3298469
〇,,チャイニーズレストランCAREN(かれん),チャイニーズレストランカレン,9902463,山形市富の中1-12-2,ハッピーガーデン1F,2021/11/16,山形市,38.236595,140.305917
〇,,茶呑み処　いわぶち,チャノミドコロイワブチ,9900042,山形市七日町2-7-6,,2021/8/3,山形市,38.25330512,140.3393801
〇,,中華　森の季,チュウカ　モリノキ,9900039,山形市香澄町2-1-21,,2021/9/28,山形市,38.2477356,140.3306865
〇,,中華しみずや,チュウカシミズヤ,9900034,山形市東原町4-7-3,,2021/7/15,山形市,38.2427525,140.3460708
〇,,中華そば　三太山形店,チュウカソバサンタヤマガタテン,9902362,山形市菅沢93,,2021/11/4,山形市,38.22854295,140.2739337
〇,,中華飯店　北龍,チュウカハンテン　ホクリュウ,9900821,山形市北町4-2-25,,2021/11/16,山形市,38.27184631,140.3309004
〇,,中華美食屋　江俣店,チュウカビショクヤ　エマタテン,9900861,山形市江俣1-2-1301-1,,2021/8/5,山形市,38.2733031,140.3240716
〇,,中華料理　華園,チュウカリョウリ　カエン,9900042,山形市七日町3-4-15,,2021/6/11,山形市,38.25513004,140.3428852
〇,,中華料理　江南春,チュウカリョウリ　コウナンシュン,9900863,山形市江南4-2-30,,2021/9/15,山形市,38.2745557,140.3141099
〇,,中華料理　東龍花,チュウカリョウリ　トウリュウカ,9900061,山形市五十鈴1-1-35,,2021/7/16,山形市,38.27192417,140.3505655
〇,,中華料理ねぎ坊主,チュウカリョウリネギボウズ,9902435,山形市青田5-13-13,,2021/9/30,山形市,38.22229653,140.3307601
〇,,中国料理　櫻果林,チュウゴクリョウリ　オウカリン,9900031,山形市十日町4-2-7,,2021/6/10,山形市,38.24592799,140.3345084
〇,,中国料理　広東,チュウゴクリョウリ　カントン,9902443,山形市南三番町6-15,,2021/9/7,山形市,38.23058167,140.3251535
〇,,中国料理  桂林,チュウゴクリョウリ　ケイリン,9900823,山形市下条町2-2-7,,2021/7/29,山形市,38.26101273,140.3243026
〇,,中国料理　紅花樓,チュウゴクリョウリ　コウカロウ,9908580,山形市城南町1-1-1,霞城セントラル24F,2021/5/27,山形市,38.25005508,140.3268861
〇,,中国料理　桃華楼,チュウゴクリョウリ　トウカロウ,9902331,山形市飯田西4-4-17,,2021/7/5,山形市,38.21544072,140.3218715
〇,,長右ェ門そば,チョウエモンソバ,9900832,山形市城西町3-16-6,,2021/10/22,山形市,38.2571508,140.3161602
〇,,月あかり　山形駅前店,ツキアカリ　ヤマガタエキマエテン,9900039,山形市香澄町2-2-39,須藤ビル1F,2021/5/31,山形市,38.2475028,140.3307555
〇,,つきしろ,ツキシロ,9900833,山形市春日町11-13,,2021/7/20,山形市,38.25411057,140.3185732
〇,,椿×楸,ツバキ　ヒサギ,9900039,山形市香澄町1-3-1,地下1F,2021/11/22,山形市,38.24805256,140.3290565
〇,,石蕗の舎,ツワノヤ,9900042,山形市七日町2-7-28,,2021/6/2,山形市,38.25310736,140.3408331
〇,,Ｄｅｅｐ,ディープ,9900039,山形市香澄町1-5-4,１Ｆ,2021/11/9,山形市,38.24801236,140.3299238
〇,,庭園喫茶錦,テイエンキッサニシキ,9902305,山形市蔵王半郷578-5,,2021/10/28,山形市,38.18722858,140.3129902
〇,,定食居酒屋　炭火焼　のり八,テイショクイザカヤ　スミビヤキ　ノリハチ,9900031,山形市十日町1-7-31,大原マンション101号,2021/6/25,山形市,38.24818759,140.3360344
〇,,TINDAHAN,ティンダハン,9900067,山形市花楯2-18-68,2F,2021/6/1,山形市,38.27586636,140.3533329
〇,,手打蕎麦　きふね,テウチソバ　キフネ,9900801,山形市天神町68,,2021/10/4,山形市,38.3097006,140.3247176
〇,,手打そば　竹ふく,テウチソバ　タケフク,9902483,山形市上町2-3-1,,2021/5/8,山形市,38.2448959,140.317516
〇,,手打そば　マルシン,テウチソバ　マルシン,9900063,山形市山家町1-6-48,,2021/9/1,山形市,38.26550719,140.3597986
〇,,手打ちそば　港屋,テウチソバ　ミナトヤ,9900064,山形市和合町2-1-30,,2021/8/24,山形市,38.2614595,140.3571779
〇,,手打ちそば処「わらび野」,テウチソバドコロワラビノ,9902384,山形市大字上反田695-2,,2021/5/31,山形市,38.271966,140.2371403
〇,,手打そば竜山,テウチソバリュウザン,9902404,山形市八森96,,2021/10/21,山形市,38.21134968,140.3748608
〇,,鉄板居酒屋　夢はな,テッパンイザカヤ　ユメハナ,9900042,山形市七日町2-1-14,,2021/6/28,山形市,38.2522544,140.3394987
〇,,てっぱん屋台　鈴木製作所,テッパンヤタイ　スズキセイサクジョ,9900042,山形市七日町2-1-14-6-6,山形屋台村ほっとなる横丁,2021/7/1,山形市,38.2522536,140.3394858
〇,,DEPO-ZITTO&cafe de depo,デポージットアンドカフェドデポ,9900039,山形市香澄町1-9-1,珍味ビル3F,2021/9/7,山形市,38.24884317,140.3295208
〇,,伝承そば処　みちのく亭,デンショウソバドコロ　ミチノクテイ,9900039,山形市香澄町3-2-1,山交ビルB1F,2021/7/26,山形市,38.24624561,140.3319471
〇,,伝説のすた丼屋 山形飯田バイパス店,デンセツノスタドンヤ　ヤマガタイイダバイパステン,9902332,山形市飯田1-1-12,,2021/9/29,山形市,38.21701547,140.3259952
〇,,伝説のすた丼屋 山形西バイパス店,デンセツノスタドンヤ　ヤマガタニシバイパステン,9902481,山形市あかねヶ丘1-3-15,,2021/9/29,山形市,38.25048114,140.3095676
〇,,天ぷら　あざらけ,テンプラ　アザラケ,9900827,山形市城南町2-11-3,オフィス福原Ⅲ 1Ｆ,2021/7/1,山形市,38.25114536,140.3243826
〇,,天ぷら　天海,テンプラ　アマミ,9900032,山形市小姓町8-4,,2021/7/15,山形市,38.2477584,140.339973
〇,,天ぷら　山寺　ホテルアーバングレイスグラン1Ｆ,テンプラ　ヤマデラ　ホテルアーバングレイスグラン1F,9900039,山形市香澄町1-18-12,,2021/8/16,山形市,38.25089099,140.3296863
〇,,てんぷら㐂八,テンプラキハチ,9900042,山形市七日町4-10-21,,2021/6/23,山形市,38.2539939,140.343414
〇,,トゥールモンド　焙煎工房花樹有,トゥールモンド　バイセンコウボウカジュアル,9902483,山形市上町5-2-1,,2021/8/20,山形市,38.2425753,140.3144554
〇,,峠の茶屋,トウゲノチャヤ,9900015,山形市新山516-1,,2021/10/28,山形市,38.22646075,140.4267113
〇,,道とん堀　山形嶋店,ドウトンボリ　ヤマガタシマテン,9900886,山形市嶋南3-15-27,,2021/6/25,山形市,38.2832677,140.3174817
〇,,東北中央病院内食堂「和」,トウホクチュウオウビョウインナイショクドウ　ナゴミ,9900064,山形市和合3-2-5,,2021/11/16,山形市,38.2600318,140.3617342
〇,,独選炭火焼肉ひとりじめ,ドクセンスミビヤキニクヒトリジメ,9902445,山形市南栄町1-1-45,,2021/10/4,山形市,38.234398,140.3222358
〇,,TRAUM（トラウム）,トラウム,9900039,山形市香澄町1-13-17　2Ｆ,,2021/7/7,山形市,38.2492798,140.3302738
〇,,トラットリア　ピッツェリア　ボーノ,トラットリア　ピッツェリア　ボーノ,9900025,山形市あこや町2-2-32,,2021/6/30,山形市,38.24152815,140.3515465
〇,,鳥縁,トリエン,9902431,山形市松見町20-10,,2021/10/11,山形市,38.23275158,140.340033
〇,,鳥和,トリカズ,9900881,山形市瀬波3-7-42,,2021/8/17,山形市,38.28325977,140.3083282
〇,,鳥清やまがた,トリセイヤマガタ,9900051,山形市銅町2-2-22,,2021/9/22,山形市,38.2689824,140.3422663
〇,,鳥せん,トリセン,9900039,山形市香澄町2-8-29,,2021/7/8,山形市,38.2483018,140.3329157
〇,,鳥春,トリハル,9900031,山形市十日町2-3-44,,2021/10/1,山形市,38.2470327,140.3374337
〇,,鶏やあさぎ,トリヤアサギ,9900039,山形市香澄町1-21-28,,2021/6/11,山形市,38.249647,140.3311135
〇,,トレンタ　山形北店,トレンタ　ヤマガタキタテン,9900885,山形市嶋北2-5-17,フレスポ山形北,2021/8/11,山形市,38.2875871,140.3193429
〇,,トレンタ　山形南店,トレンタ　ヤマガタミナミテン,9902435,山形市青田4-1-38,,2021/8/4,山形市,38.2238091,140.3264389
〇,,とんかつ浅野,トンカツアサノ,9900085,山形市嶋北2-21-11,,2021/8/5,山形市,38.28981417,140.3200739
〇,,とんかつかつMI　山形南館店,トンカツカツミ　ヤマガタミナミダテテン,9902461,山形市南館5-7-33,,2021/6/11,山形市,38.23583315,140.3063519
〇,,とんかつ竹亭　山形店,トンカツタケテイ　ヤマガタテン,9902323,山形市桜田東4-7-25,,2021/11/25,山形市,38.2184847,140.3255006
〇,,どんＱ製麺,ドンキュウセイメン,9900828,山形市双葉町1-3-47,,2021/10/4,山形市,38.24967817,140.3241128
〇,,呑どん,ドンドン,9900039,山形市香澄町1-7-5,,2021/11/12,山形市,38.2485932,140.3296035
〇,,どんどん焼き　喰い処　けやき,ドンドンヤキ　クイドコロ　ケヤキ,9902444,山形市南四番町12-9,,2021/9/2,山形市,38.2332563,140.3259107
〇,,とん八 本店,トンパチ　ホンテン,9902461,山形市南館2-1-2,,2021/9/30,山形市,38.2400594,140.3146624
〇,,とん八 山形北インター店,トンパチ　ヤマガタキタインターテン,9900071,山形市流通センター4-7-2,,2021/9/30,山形市,38.2959928,140.3601125
〇,,とん八　山形嶋店,トンパチ　ヤマガタシマテン,9900885,山形市嶋北2-15-3,,2021/7/15,山形市,38.2880499,140.3189719
〇,,とん八　山形成沢店,トンパチ　ヤマガタナリサワテン,9902339,山形市成沢西4-11-40,,2021/7/15,山形市,38.20486138,140.3153368
〇,,ナイス　バーディ,ナイス　バーディ,9902481,山形市あかねヶ丘2-3-7,,2021/6/22,山形市,38.244914,140.312046
〇,,ナイトインパブ　セトナ,ナイトインパブ　セトナ,9900042,山形市七日町4-10-5,,2021/5/18,山形市,38.25415,140.3433209
〇,,和,ナギ,9900038,山形市幸町5-20,,2021/6/4,山形市,38.24678169,140.3278959
〇,,なごみ処　一縁,ナゴミドコロ　イチエン,9900039,山形市香澄町2-11-2,,2021/6/9,山形市,38.2498415,140.3315848
〇,,和ゆう膳,ナゴミユウゼン,9900039,山形市香澄町2-6-16,,2021/8/16,山形市,38.248477,140.3313216
〇,,ナチュラルグラッチェ　be食,ナチュラルグラッチェ　ビショク,9902313,山形市松原378-14,,2021/6/25,山形市,38.20561877,140.3043566
〇,,NANA starring,ナナスターリング,9900042,山形市七日町1-2-50,1F北,2021/9/24,山形市,38.2519511,140.3373305
〇,,七日町酒場SABOTEN,ナノカマチサカバサボテン,9900042,山形市七日町4-1-31,道産子ビル1Ｆ,2021/8/17,山形市,38.25203322,140.341891
〇,,なる鮨,ナルズシ,9902492,山形市鉄砲町1-4-21,村岡ビル内,2021/7/13,山形市,38.23962571,140.3321249
〇,,肉そば処　立花,ニクソバ　タチバナ,9902161,山形市漆山字住吉755-1,,2021/10/29,山形市,38.31107482,140.350889
〇,,肉そば　まると,ニクソバ　マルト,9902447,山形市元木2-9-37,,2021/7/13,山形市,38.223373,140.3200028
〇,,肉そば・鳥中華　ざぶん,ニクソバ・トリチュウカ　ザブン,9900813,山形市桧町3-9-2,,2021/11/2,山形市,38.277546,140.3304162
〇,,肉そば処　立花　南支店,ニクソバドコロ　タチバナ　ミナミシテン,9902353,山形市明石堂1-2,,2021/11/12,山形市,38.22991642,140.2958306
〇,,肉ばっか,ニクバッカ,9900042,山形市七日町4-9-13,,2021/10/18,山形市,38.2535258,140.3435563
〇,,ニクバル　グラッチェ,ニクバル　グラッチェ,9900039,山形市香澄町2-5-16,香澄ビル1F,2021/6/23,山形市,38.24784569,140.3317279
〇,,虹の華,ニジノハナ,9900042,山形市七日町5-10-19,YT15ビル1F,2021/7/21,山形市,38.25174146,140.3421691
〇,,弐番館　セリーヌ,ニバンカン　セリーヌ,9900039,山形市香澄町1-4-6,,2021/6/17,山形市,38.24818137,140.3296154
〇,,Nibbles,ニブルス,9900042,山形市七日町2-7-15,,2021/6/14,山形市,38.25372138,140.339781
〇,,日本料理　淀川,ニホンリョウリ　ヨドガワ,9900042,山形市七日町5-10-35,,2021/7/21,山形市,38.25105367,140.3431783
〇,,日本料理 花むら,ニホンリョウリハナムラ,9900039,山形市香澄町1-15-31,,2021/7/30,山形市,38.24941434,140.3292709
〇,,二〇加屋大衆,ニワカヤタイシュウ,9900039,山形市香澄町2-2-40,第二柿崎ビル1F,2021/10/21,山形市,38.2475064,140.3306535
〇,,寧々家　山形あかねヶ丘店,ネネヤ　ヤマガタアカネガオカテン,9902481,山形市あかねケ丘3-19-7　,,2021/10/7,山形市,38.2418058,140.3071385
〇,,寧々家　山形大野目店,ネネヤ　ヤマガタダイノメテン,9900073,山形市大野目2-57-1 ,,2021/10/8,山形市,38.27889111,140.3561874
〇,,寧々家　山形松見町店,ネネヤ　ヤマガタマツミチョウテン,9902413,山形市南原町3-21-20 ,,2021/10/18,山形市,38.23118431,140.3411607
〇,,ノアール,ノアール,9900042,山形市七日町2-4-18　　,YT七番館ビル1階,2021/10/26,山形市,38.25225879,140.3412554
〇,,のじ家,ノジヤ,9902462,山形市深町1-1-37,,2021/9/30,山形市,38.2356287,140.3192384
〇,,野のはな,ノノハナ,9902332,山形市飯田1-3-32,,2021/11/25,山形市,38.21541034,140.323628
〇,,呑み処　こすもす,ノミドコロ　コスモス,9900039,山形市香澄町3-5-20,丸久ビル301号,2021/6/9,山形市,38.24628165,140.3303332
〇,,吞処　ささや,ノミドコロ　ササヤ,9900039,山形市香澄町1-4-1,伊東ビル1F,2021/7/26,山形市,38.24828994,140.329212
〇,,音希,ノンキ,9900042,山形市七日町3-2-20,YTビルアネックス2F,2021/6/21,山形市,38.25413896,140.3415263
〇,,ノンブル,ノンブル,9900042,山形市七日町2-2-1,赤門ピアッザ2F,2021/7/30,山形市,38.25119149,140.3405572
〇,,BAR　香澄,バー　カスミ,9900039,山形市香澄町1-10-1,クラウンヒルズ山形1F,2021/9/3,山形市,38.24878758,140.3303799
〇,,bar corleone,バー　コルレオーネ,9900042,山形市七日町3-3-43,,2021/8/26,山形市,38.25321819,140.3416763
〇,,Bar 聖和,バー　セイワ,9902301,山形市蔵王温泉川原875-12,,2021/6/8,山形市,38.1666727,140.3982176
〇,,BAR　野村,バー　ノムラ,9900039,山形市香澄町1-14-12　,2F,2021/11/12,山形市,38.24997356,140.3300047
〇,,BAR Heat Roll,バー ヒートロール,9900042,山形市七日町2-1-25,,2021/7/20,山形市,38.25222191,140.3400343
〇,,Bar 4Dears,バー　フォーディアーズ,9900039,山形市香澄町1-13-15,YTパーレルビル2　2F,2021/5/28,山形市,38.24938112,140.330286
〇,,Bar & Dining あるバル,バーアンドダイニング　アルバル,9902423,山形市東青田4-6-21,2F,2021/5/8,山形市,38.22159639,140.3356329
〇,,Bar karakahl,バーカラカウル,9900039,山形市香澄町1-5-10,船山書店ビル2F,2021/7/6,山形市,38.24807958,140.3302817
〇,,PARK ZONE,パーク　ゾーン,9900039,山形市香澄町1-13-14,ブレス１號館4FC,2021/8/18,山形市,38.24946475,140.3301883
〇,,Bar Tarji,バータージ,9900042,山形市七日町2-7-28,YT二丁目ビル1F,2021/10/26,山形市,38.25311789,140.3409323
〇,,バードランド,バードランド,9900039,山形市香澄町1-6-3,,2021/7/9,山形市,38.2484545,140.3301511
〇,,BarBeerBong,バービアボング,9900042,山形市七日町2-2-1,赤門ビル4F,2021/7/1,山形市,38.25113988,140.3406537
〇,,BAR SAUDADE,バール　サウダージ,9900042,山形市七日町3-3-21,モンシェリービル1F,2021/7/30,山形市,38.25463974,140.3421437
〇,,パールピンク,パールピンク,9900039,山形市香澄町1-9-17,武田ビル2F,2021/11/17,山形市,38.24871196,140.3298077
〇,,博多もつ。佐のちゃん,ハカタモツ。サノチャン,9900039,山形市香澄町1-15-16,ラテス壱番館,2021/9/27,山形市,38.25039774,140.3297982
〇,,博多もつ鍋居酒屋　一酔,ハカタモツナベイザカヤ　イッスイ,9900039,山形市香澄町1-4-6,弐番館1F,2021/8/24,山形市,38.2482809,140.3296033
〇,,博多屋台まこっちゃん,ハカタヤタイマコッチャン,9900042,山形市七日町2-4-18,YTビル七番館,2021/10/18,山形市,38.25238727,140.3412004
〇,,馬かもん　山形店,バカモン　ヤマガタテン,9900039,山形市香澄町2-3-31,香澄町第三須藤ビル,2021/6/18,山形市,38.2468293,140.3327063
〇,,芭蕉茶屋,バショウチャヤ,9993301,山形市山寺1873,,2021/6/1,山形市,38.30979694,140.4326484
〇,,パスタ＆ランチ 151A　いちごいちえ,パスタアンドランチ　イチゴイチエ,9900071,山形市流通センター2-3,,2021/7/20,山形市,38.28982481,140.3561114
〇,,畑のごちそうナチュラルカフェ,ハタケノゴチソウナチュラルカフェ,9900023,山形市松波4-10-15,,2021/8/11,山形市,38.23920782,140.3664136
〇,,ぱっぷや　霞城セントラル店,パップヤ　カジョウセントラルテン,9900827,山形市城南町1-1-1,霞城セントラル内,2021/5/27,山形市,38.24987604,140.3268432
〇,,花菜,ハナ,9902433,山形市鳥居ケ丘1-46,グリーンミント 1F,2021/9/21,山形市,38.22971045,140.3289627
〇,,花寿司,ハナズシ,9900042,山形市七日町3-2-26,鈴木ビル1F,2021/6/25,山形市,38.25361581,140.3410967
〇,,花とお茶　鴇色,ハナトオチャ　トキイロ,9900042,山形市七日町2-4-8,,2021/10/26,山形市,38.25255,140.3414948
〇,,HANA火,ハナビ,9900042,山形市七日町3-3-3,,2021/8/17,山形市,38.2535647,140.3414003
〇,,花みずき,ハナミズキ,9900042,山形市七日町4-6-4,,2021/8/30,山形市,38.25340995,140.3440267
〇,,パブ　D・A・K・A・R・A,パブ　ダカラ,9900042,山形市七日町3-3-21,北斗第二ビル1F,2021/7/28,山形市,38.25452285,140.3423744
〇,,パブCBGB,パブシイビイジイビイ,9900039,山形市香澄町1-7-6,花笠ビルB1,2021/6/30,山形市,38.2485177,140.3296706
〇,,パブスナック　2PEACE,パブスナック　ツーピース,9900039,山形市香澄町1-4-1,伊東ビル2F,2021/6/30,山形市,38.24836524,140.3292462
〇,,パブラウンジ「やすらぎ」,パブラウンジヤスラギ,9900039,山形市香澄町1-4-6,弐番館ビル3F,2021/10/5,山形市,38.24825826,140.3296637
〇,,浜なす分店,ハマナスブンテン,9900042,山形市七日町4-6-7,,2021/6/10,山形市,38.25345535,140.3440913
〇,,バラード（ダイニング　バー）,バラード（ダイニング　バー）,9900039,山形市香澄町2-10-1,カスミビル1F,2021/7/29,山形市,38.2488255,140.3309901
〇,,パレスグランデール,パレスグランデール,9902432,山形市荒楯町1-17-40,,2021/5/26,山形市,38.23325095,140.330235
〇,,バロー　ホテルアーバングレイスグランB1,バロー　ホテルアーバングレイスグランB1,9900039,山形市香澄町1-18-12,,2021/8/16,山形市,38.25082569,140.3296625
〇,,はんあり酒家,ハンアリシュカ,9900031,山形市十日町2-4-30,,2021/8/6,山形市,38.24838444,140.3377348
〇,,バンコク,バンコク,9900039,山形市香澄町1-7-6,花笠ビル1F,2021/8/18,山形市,38.2485435,140.3297008
〇,,半兵ヱ　山形すずらん通り店,ハンベエ　ヤマガタスズランドオリテン,9900039,山形市香澄町2-10-2,香澄ビル1F,2021/8/6,山形市,38.24887063,140.3310442
〇,,番屋,バンヤ,9900032,山形市小姓町1-13,落合ビル1Ｆ,2021/9/7,山形市,38.24727883,140.3394265
〇,,Beer Storage,ビアストレージ,9900042,山形市七日町2-7-30,藤ビル 1F,2021/5/18,山形市,38.2530321,140.3405182
〇,,B1居酒屋なおチャン,ビーワンイザカヤナオチャン,9900039,山形市香澄町1-18-12,ホテルアーバングレイスグラン　地下1F,2021/9/21,山形市,38.25089889,140.329637
〇,,東屋BAR,ヒガシヤバー,9900039,山形市香澄町1-14-4,四釜ビル2F,2021/12/7,山形市,38.2492847,140.3296251
〇,,日月庵,ヒゲツアン,9900827,山形市城南町2-2-8,,2021/7/8,山形市,38.25122435,140.3242834
〇,,ピザカルボ　山形北桧町店,ピザカルボ　ヤマガタキタヒノキチョウテン,9900813,山形市桧町2-5-28,,2021/6/29,山形市,38.27566343,140.3320726
〇,,ピザカルボ　山形南館店,ピザカルボ　ヤマガタミナミダテテン,9902461,山形市南館5-7-33,,2021/6/11,山形市,38.23579207,140.3064378
〇,,biscuit records,ビスケットレコード,9900031,山形市十日町4-3-13 ,2F,2021/10/28,山形市,38.24487031,140.3342699
〇,,ビッグベア,ビッグベア,9902493,山形市美畑町3-47,,2021/6/24,山形市,38.23696726,140.3249367
〇,,ピッツァとワインのお店　フラム,ピッツァトワインノオミセ　フラム,9900042,山形市七日町1-4-27,,2021/6/1,山形市,38.253773,140.3394007
〇,,秀寿し,ヒデズシ,9900032,山形市小姓町8-29,,2021/6/8,山形市,38.2474441,140.3399737
〇,,飛天の風,ヒテンノカゼ,9900042,山形市七日町2-1-14-6,山形屋台村ほっとなる横丁8区画,2021/10/26,山形市,38.2521425,140.3393829
〇,,平田牧場ホテルメトロポリタン山形店,ヒラタボクジョウホテルメトロポリタンヤマガタテン,9900039,山形市香澄町1-1-1,ホテルメトロポリタン山形2F,2021/5/28,山形市,38.248504,140.3277342
〇,,ファイヤーキッチンわい藏,ファイヤーキッチンワイグラ,9900042,山形市七日町2-3-1,,2021/7/8,山形市,38.25152015,140.3402747
〇,,50's cocktail's bar Cool,フィフティーズカクテルズバークール,9900039,山形市香澄町1-5-15,2F,2021/6/9,山形市,38.2476685,140.3300274
〇,,フーズガーデン,フーズガーデン,9900039,山形市香澄町3-2-1,山交ビル地下1F,2021/6/7,山形市,38.24627616,140.3318009
〇,,food ＆ bar KABURETTA,フードアンドバー　カブレッタ,9900042,山形市七日町2-7-38,カジュアルプラザ1-B,2021/7/20,山形市,38.25243464,140.3404166
〇,,FOOD & BAR JAM,フードアンドバー　ジャム,9900042,山形市七日町4-10-2,,2021/7/30,山形市,38.2541323,140.3431311
〇,,フェイス,フェイス,9900042,山形市七日町4-1-30,ライトロードビル2F,2021/6/17,山形市,38.25205425,140.3420599
〇,,舞喜酔,ブキヨウ,9902483,山形市上町1-14-7,,2021/9/2,山形市,38.2431587,140.3182005
〇,,ふぐ料理　麒麟,フグリョウリ　キリン,9900047,山形市旅篭町3-3-28,,2021/6/15,山形市,38.2558509,140.3374158
〇,,双葉館,フタバカン,9900827,山形市城南町3-7-5,,2021/6/15,山形市,38.25082548,140.3209459
〇,,プチノエル,プチノエル,9900042,山形市七日町2-3-12,,2021/7/5,山形市,38.25206767,140.3408159
〇,,ぶどう酒食堂バッカナール,ブドウシュショクドウバッカナール,9900039,山形市香澄町1-11-8,1F,2021/7/20,山形市,38.24954653,140.3305299
〇,,ふもとや登山口店,フモトヤトザングチテン,9993301,山形市大字山寺4439,,2021/10/20,山形市,38.31164315,140.437459
〇,,ふもとや本店,フモトヤホンテン,9993301,山形市山寺4429,,2021/10/20,山形市,38.31180118,140.4365643
〇,,ブルーマーケット　本店,ブルーマーケット　ホンテン,9900039,山形市香澄町1-6-5,第二白樺ビル　2F,2021/8/11,山形市,38.2484614,140.3303465
〇,,ブルーマーケットブラザーズ,ブルーマーケットブラザーズ,9900039,山形市香澄町1-6-6,白樺ビル2階,2021/5/26,山形市,38.24830673,140.3304069
〇,,ふれ愛ダイニングKANOYA,フレアイダイニングカノヤ,9900039,山形市香澄町1-15-4,,2021/5/27,山形市,38.24939434,140.3290909
〇,,フローレス,フローレス,9900039,山形市香澄町1-4-5,,2021/7/8,山形市,38.2482616,140.3295082
〇,,文六鮨,ブンロクズシ,9900044,山形市木の実町1-27,,2021/7/30,山形市,38.25050961,140.3324466
〇,,平安典礼　セレモニーハート檜,ヘイアンテンレイ　セレモニーハートヒノキ,9900813,山形市桧町2-11-8,,2021/5/19,山形市,38.27753614,140.3321385
〇,,平安典礼　セレモニーハート緑,ヘイアンテンレイ　セレモニーハートミドリ,9900041,山形市緑町3-3-33,,2021/7/6,山形市,38.2494263,140.347786
〇,,平安典礼　セレモニーホール霞城,ヘイアンテンレイ　セレモニーホールカジョウ,9900834,山形市清住町3-4-34,,2021/6/9,山形市,38.25242996,140.313771
〇,,平安典礼　セレモニーホール大野目,ヘイアンテンレイ　セレモニーホールダイノメ,9900073,山形市大野目2-1-7,,2021/7/6,山形市,38.2782876,140.3560005
〇,,平安典礼　セレモニーホール白山,ヘイアンテンレイ　セレモニーホールハクサン,9902446,山形市白山1-12-10,,2021/6/3,山形市,38.2264365,140.3194632
〇,,平安典礼　セレモニーホール山形,ヘイアンテンレイ　セレモニーホールヤマガタ,9902492,山形市鉄砲町2-21-25,,2021/6/9,山形市,38.2351407,140.3362756
〇,,ベニ,ベニ,9900039,山形市香澄町1-11-11,,2021/7/8,山形市,38.24948918,140.330791
〇,,Pero,ペロ,9902435,山形市青田4-9-26,,2021/9/27,山形市,38.22315659,140.3292211
〇,,宝来寿司,ホウライスシ,9900039,山形市香澄町1-9-5,,2021/10/1,山形市,38.2488753,140.3297091
〇,,BOTA　coffee,ボタコーヒー,9900042,山形市七日町2-7-18,,2021/6/3,山形市,38.25354714,140.3401903
〇,,北海道レストラン別邸　嶋北店,ホッカイドウレストランベッテイ　シマキタテン,9900885,山形市嶋北2-5-78-1,,2021/6/21,山形市,38.28509544,140.3182069
〇,,ホテルメトロポリタン山形　ブラッスリー＆バー　「ラ　ガレ」,ホテルメトロポリタンヤマガタ　ブラッスリーアンドバー　ラ　ガレ,9900039,山形市香澄町1-1-1,,2021/5/10,山形市,38.24835444,140.327812
〇,,ホテルメトロポリタン山形　日本料理・鉄板焼　「最上亭」,ホテルメトロポリタンヤマガタ　二ホンリョウリ・テッパンヤキ　モガミテイ,9900039,山形市香澄町1-1-1,,2021/5/10,山形市,38.24843027,140.3277409
〇,,Bonheur（ボヌール）,ボヌール,9902321,山形市みはらしの丘4-15-40,,2021/6/4,山形市,38.18303234,140.2894801
〇,,ボルドー,ボルドー,9900042,山形市七日町2-1-26,,2021/9/10,山形市,38.25189935,140.3402413
〇,,ホルモン・冷麺　MAIDO,ホルモン　レイメン　マイド,9900042,山形市七日町2-3-4,,2021/6/21,山形市,38.2517707,140.3403838
〇,,ホルモン居酒屋　てんま分店,ホルモンイザカヤ　テンマブンテン,9900828,山形市双葉町2-1-71,,2021/9/16,山形市,38.25041151,140.3216002
〇,,ぽろぽろかん工房　カフェレストランいの和,ポロポロカンコウボウ　カフェレストランイノワ,9902232,山形市大字下東山997-1,,2021/6/29,山形市,38.30071069,140.3948412
〇,,ボンシュール,ボンシュール,9902163,山形市伊達城1-6-6,,2021/6/21,山形市,38.3097968,140.3630083
〇,,本町金六,ホンチョウキンロク,9900043,山形市本町2-1-20,1F,2021/5/31,山形市,38.25003738,140.3378041
〇,,本場ちゃんこ関取,ホンバチャンコセキトリ,9900042,山形市七日町2-3-30,,2021/9/17,山形市,38.25136995,140.340541
〇,,マーガレット,マーガレット,9900042,山形市七日町4-7-2,,2021/6/25,山形市,38.2526264,140.3436219
〇,,マーキガルニ,マーキガルニ,9900039,山形市香澄町2-1-2,,2021/5/28,山形市,38.24790811,140.3305981
〇,,MERCY(マーシー),マーシー,9900031,山形市十日町4-1-7,パークサイドフローリストビル3F,2021/9/9,山形市,38.2461662,140.3335707
〇,,マグダレンカ,マグダレンカ,9900823,山形市下条町2-4-16,,2021/6/25,山形市,38.26278602,140.3246767
〇,,まぐろ亭いのまた,マグロテイイノマタ,9900042,山形市七日町2-3-12,ホーユービル2F,2021/5/26,山形市,38.25210664,140.3409553
〇,,まぐろ処凪,マグロドコロナギ,9900071,山形市流通センター2-3,,2021/11/10,山形市,38.29004375,140.3554811
〇,,マタタビcafe,マタタビカフェ,9900073,山形市大野目2-5-38,,2021/7/8,山形市,38.27736074,140.3585391
〇,,街なかマーケット　北前屋,マチナカマーケット　キタマエヤ,9900042,山形市七日町1-2-50,1F南,2021/9/24,山形市,38.25191529,140.337356
〇,,町家Cafe　ちゃいはな,マチヤカフェ　チャイハナ,9900024,山形市あさひ町10-16,,2021/7/12,山形市,38.24352547,140.3620654
〇,,マリノ,マリノ,9900038,山形市幸町5-1,1Ｆ,2021/10/20,山形市,38.24749798,140.3282561
〇,,まりぽーさ,マリポーサ,9900042,山形市七日町1-4-29,伊勢ビル1F,2021/7/30,山形市,38.25367809,140.3392596
〇,,マリンルージュ,マリンルージュ,9900832,山形市香澄町1-9-17,武田ビル1F ,2021/11/17,山形市,38.24868089,140.3298003
〇,,丸喜多,マルキタ,9900042,山形市七日町3-3-32,,2021/10/5,山形市,38.25374327,140.3423134
〇,,丸源,マルゲン,9900042,山形市七日町3-3-32,,2021/10/5,山形市,38.25376065,140.3421914
〇,,丸五そば屋,マルゴソバヤ,9900034,山形市東原町1-3-19,,2021/11/17,山形市,38.24727717,140.3478729
〇,,ミツバチガーデンカフェ,ミツバチガーデンカフェ,9902305,山形市蔵王半郷578-19,,2021/10/28,山形市,38.18724083,140.3133245
〇,,美登屋,ミトヤ,9993301,山形市大字山寺4494-5,,2021/12/9,山形市,38.31154355,140.4359024
〇,,みどりのしづく,ミドリノシヅク,9900041,山形市緑町2-10-41,,2021/9/22,山形市,38.25643584,140.3497185
〇,,南,ミナミ,9902463,山形市富の中1-1-1,,2021/7/7,山形市,38.23815686,140.3062851
〇,,みなみのとんとん,ミナミノトントン,9902451,山形市吉原3-1-1,,2021/8/4,山形市,38.23129454,140.3091531
〇,,みんなのガールズバー　Pinky,ミンナノガールズバー　ピンキー,9900042,山形市七日町2-7-24,パシフィックビル2F,2021/7/28,山形市,38.25327526,140.3408501
〇,,Moon river,ムーンリバー,9900042,山形市七日町2-2-9,鈴木ビル1F　北,2021/5/18,山形市,38.25112693,140.3409439
〇,,村井家,ムライヤ,9902463,山形市富の中4-4-37,,2021/11/25,山形市,38.23183957,140.3057956
〇,,村山総合支庁本庁舎　食堂,ムラヤマソウゴウシチョウホンチョウシャ　ショクドウ,9902492,山形市鉄砲町2-19-68,,2021/11/25,山形市,38.23565893,140.3346466
〇,,メッセージ,メッセージ,9900042,山形市七日町2-3-1,共栄ビル2-Ｃ,2021/10/18,山形市,38.25146539,140.3402532
〇,,メルローズ,メルローズ,9900042,山形市七日町4-15-23,,2021/11/12,山形市,38.2544705,140.3448057
〇,,麵工房　華みずき,メンコウボウ　ハナミズキ,9900886,山形市嶋南3-14-25,,2021/8/11,山形市,38.28254784,140.3181022
〇,,めん蔵+GOMAZO,メンゾウ　プラス　ゴマゾウ,9900810,山形市馬見ヶ崎1-6-8,,2021/10/11,山形市,38.2796232,140.3336101
〇,,麺辰,メンタツ,9902422,山形市中桜田2-5-5,,2021/8/10,山形市,38.21974857,140.337025
〇,,麺藤田,メンドウダ,9900039,山形市香澄町1-7-1,,2021/5/27,山形市,38.24867151,140.3294303
〇,,めん処　大もり家,メンドコロ　オオモリヤ,9902231,山形市大森402-16,,2021/7/27,山形市,38.312052,140.3872215
〇,,メンバーズ天,メンバーズテン,9900039,山形市香澄町1-13-16,3F,2021/9/27,山形市,38.2494184,140.3302871
〇,,めんや縁,メンヤエン,9900071,山形市流通センター2-3,山形流通団地会館内,2021/10/1,山形市,38.2898627,140.355685
〇,,最上川,モガミガワ,9900042,山形市七日町4-16-26,,2021/7/21,山形市,38.2544939,140.3433044
〇,,MOKU cafe,モク　カフェ,9900039,山形市香澄町3-6-5,2F,2021/6/8,山形市,38.2467317,140.330292
〇,,木蓮,モクレン,9900042,山形市七日町3-2-26,鈴木ビル2F,2021/8/20,山形市,38.25355052,140.3412094
〇,,モスバーガー 山形駅前大通り店,モスバーガー　ヤマガタエキマエオオドオリテン,9900039,山形市香澄町2-2-41,,2021/9/30,山形市,38.2475376,140.3305761
〇,,モスバーガー 山形北店,モスバーガー　ヤマガタキタテン,9900810,山形市馬見ヶ崎2-11-18,,2021/9/30,山形市,38.2816265,140.3301421
〇,,モスバーガー 山形桜田店,モスバーガー　ヤマガタサクラダテン,9902321,山形市桜田西2-1-7,,2021/9/30,山形市,38.21879179,140.3193644
〇,,モスバーガー 山形七日町店,モスバーガー　ヤマガタナノカマチテン,9900043,山形市本町2-4-19,,2021/9/30,山形市,38.2518456,140.3385694
〇,,モスバーガー 山形西バイパス店,モスバーガー　ヤマガタニシバイパステン,9900832,山形市城西町5-35-62,,2021/9/30,山形市,38.2613035,140.3111443
〇,,餅・居酒屋　水里,モチイザカヤミサト,9900861,山形市江俣1-6-21,,2021/7/15,山形市,38.2742351,140.3240155
〇,,もつや,モツヤ,9902432,山形市荒楯町1-12-30,,2021/9/6,山形市,38.2336045,140.3325681
〇,,門前つくも支店,モンゼンツクモシテン,9902463,山形市富の中2-1-1,,2021/8/10,山形市,38.2351991,140.3057553
〇,,焼き鳥　蒼,ヤキトリ　アオイ,9900039,山形市香澄町1-11-11,唐津ビル 唐津Ⅱ,2021/11/9,山形市,38.24944706,140.3308151
〇,,やきとり　孝四郎,ヤキトリ　コウシロウ,9900039,山形市香澄町1-5-3,2F,2021/5/31,山形市,38.24780189,140.329945
〇,,やきとり　すずめ,ヤキトリ　スズメ,9900832,山形市城西町2-12-7,,2021/10/4,山形市,38.25714,140.3209478
〇,,焼き鳥　とりひろ,ヤキトリ　トリヒロ,9900042,山形市七日町1-2-55,YTビル　アンフィニ1F,2021/10/15,山形市,38.2522575,140.3369979
〇,,やきとり一丁目,ヤキトリイッチョウメ,9902461,山形市南館1-1-29,,2021/9/22,山形市,38.2396823,140.3165335
〇,,やきとりきん太,ヤキトリキンタ,9900042,山形市七日町2-3-5,,2021/8/4,山形市,38.25183786,140.3403888
〇,,やきとり小柳地下店,ヤキトリコヤギチカテン,9900039,山形市香澄町1-7-11,タンノビル地下1F,2021/7/20,山形市,38.24832896,140.3299082
〇,,やきとり小柳七日町店,ヤキトリコヤギナヌカマチテン,9900042,山形市七日町2-4-16,熊谷ビル1F,2021/7/20,山形市,38.25216675,140.3413474
〇,,やきとり小柳本店,ヤキトリコヤギホンテン,9900039,山形市香澄町1-9-6,,2021/7/20,山形市,38.24883812,140.3298768
〇,,やきとり酒場とり幸,ヤキトリサカバトリコウ,9900067,山形市花楯2-2-20,,2021/6/23,山形市,38.2719559,140.3500363
〇,,やきとり佐兵衛,ヤキトリサへエ,9900831,山形市西田1-2-8,,2021/7/13,山形市,38.26217938,140.317221
〇,,やきとり佐門,ヤキトリサモン,9900042,山形市七日町4-16-1,,2021/9/8,山形市,38.2542605,140.3427699
〇,,やきとり大吉江俣店,ヤキトリダイキチエマタテン,9900861,山形市江俣5-3-32,,2021/11/15,山形市,38.2788832,140.3135757
〇,,やきとり大吉　山形緑町店,ヤキトリダイキチヤマガタミドリマチテン,9900041,山形市緑町4-26-28,,2021/8/17,山形市,38.2541691,140.3515766
〇,,やきとり大吉吉原店,ヤキトリダイキチヨシハラテン,9902453,山形市若宮1-3-17,フォレストハート2南,2021/9/14,山形市,38.22632407,140.3138503
〇,,焼き鳥とワイン　彩鳥,ヤキトリトワイン　イロドリ,9900042,山形市七日町3-3-31,,2021/7/1,山形市,38.2538935,140.3422385
〇,,やきとり前田村,ヤキトリマエダムラ,9902413,山形市南原町1-14-38,,2021/9/15,山形市,38.23766456,140.3445982
〇,,やきとり萬両,ヤキトリマンリョウ,9900038,山形市幸町6-10,,2021/11/2,山形市,38.2466497,140.3294646
〇,,やきとり家竜鳳　山形南栄町店,ヤキトリヤリュウホウ　ヤマガタナンエイチョウテン,9902445,山形市南栄町2-12-18,,2021/7/16,山形市,38.23161586,140.3190952
〇,,やきとり遊喜,ヤキトリユウキ,9902321,山形市桜田西2-7-21,,2021/8/25,山形市,38.2191608,140.3148522
〇,,焼肉Garden KAKI 鈴川店,ヤキニク　ガーデンカキ　スズカワテン,9900062,山形市鈴川町3-4-11,,2021/10/15,山形市,38.26946948,140.3578423
〇,,焼肉　千歳,ヤキニク　チトセ,9900045,山形市桜町4-16,2F,2021/9/3,山形市,38.25284899,140.3328326
〇,,焼肉居酒屋　獏羅,ヤキニクイザカヤ　バクラ,9900039,山形市香澄町1-13-17,YT1丁目ビル1F,2021/8/24,山形市,38.24933298,140.3302275
〇,,焼肉　漢陽苑,ヤキニクカンヨウエン,9900039,山形市香澄町1-9-18,,2021/12/6,山形市,38.248709,140.3297426
〇,,焼肉きんぐ山形北店,ヤキニクキングヤマガタキタテン,9900810,山形市馬見ヶ崎2-15-28,,2021/11/22,山形市,38.28329959,140.3287309
〇,,焼肉くろげ,ヤキニククロゲ,9900039,山形市香澄町1-5-10,,2021/7/20,山形市,38.24800375,140.3302106
〇,,焼肉酒場　匡泉,ヤキニクサカバキョウセン,9900031,山形市十日町4-2-1,,2021/7/9,山形市,38.2460666,140.3339478
〇,,焼肉さくら　漆山店,ヤキニクサクラ　ウルシヤマテン,9902161,山形市大字漆山35,,2021/10/19,山形市,38.30952598,140.3413961
〇,,焼肉さくら　江俣店,ヤキニクサクラ　エマタテン,9900861,山形市江俣5-4-8,,2021/9/29,山形市,38.2787349,140.3125839
〇,,焼肉さくら　久保田店,ヤキニクサクラ　クボタテン,9902482,山形市久保田2-8-35,,2021/10/19,山形市,38.2498101,140.3141218
〇,,焼肉専科 牛力,ヤキニクセンカ　ギュウリキ,9902352,山形市大字前明石1352-5,ゲームプラザBe-in2内 1F,2021/9/15,山形市,38.22960783,140.303964
〇,,焼肉　直木屋,ヤキニクナオキヤ,9900863,山形市江南2-10-17,,2021/5/28,山形市,38.2720333,140.318919
〇,,焼肉ハウス玄海,ヤキニクハウスゲンカイ,9900832,山形市城西町2-6-27,,2021/5/8,山形市,38.2563,140.3218971
〇,,焼肉名匠　山牛　山形店,ヤキニクメイショウ　ヤマギュウ　ヤマガタテン,9900047,山形市旅篭町1-8-15,,2021/8/16,山形市,38.2552099,140.335469
〇,,屋台村　うま辛屋　龍司,ヤタイムラウマカラヤリュウジ,9900042,山形市七日町2-1-14-6,屋台村,2021/5/8,山形市,38.2521425,140.3393829
〇,,やど八,ヤドハチ,9900032,山形市小姓町4-8,,2021/10/29,山形市,38.24665195,140.3407355
〇,,山内農場 山形駅前店,ヤマウチノウジョウ　ヤマガタエキマエテン,9900038,山形市幸町1-2,駅南ビル2F,2021/10/28,山形市,38.24752772,140.3285184
〇,,YAMAGATA RAMEN NOODLES TOSAKA,ヤマガタ　ラーメン　ヌードルス　トサカ,9902433,山形市鳥居ヶ丘1-45,,2021/12/3,山形市,38.2295856,140.3289278
〇,,山形うわの温泉　天神乃湯,ヤマガタウワノオンセン　テンジンノユ,9902303,山形市蔵王上野313-1,,2021/7/21,山形市,38.17078894,140.3299103
〇,,山形翁,ヤマガタオキナ,9900072,山形市浜崎81,,2021/8/18,山形市,38.28272635,140.3556759
〇,,やまがたキッチン,ヤマガタキッチン,9902307,山形市表蔵王68　,山形県観光物産会館内,2021/12/2,山形市,38.19024082,140.3128913
〇,,山形牛ステーキ＆焼肉　かかし,ヤマガタギュウステーキアンドヤキニク　カカシ,9900039,山形市香澄町1-16-34,東口交通センター2F,2021/7/19,山形市,38.24953689,140.3287053
〇,,山形グランドホテル　レストラン「ラ・セーヌ」,ヤマガタグランドホテルレストランラセーヌ,9900043,山形市本町1-7-42,,2021/7/19,山形市,38.25046938,140.3374426
〇,,山形県観光物産会館　団体専用大食堂,ヤマガタケンカンコウブッサンカイカン　ダンタイセンヨウダイショクドウ,9902307,山形市表蔵王68,,2021/12/2,山形市,38.19042001,140.3127867
〇,,山形五十番飯店,ヤマガタゴジュウバンハンテン,9900039,山形市香澄町1-8-8,,2021/8/16,山形市,38.2487056,140.3292258
〇,,山形酒菜一,ヤマガタサカナイチ,9900039,山形市香澄町1-7-7,,2021/5/18,山形市,38.24849982,140.3298414
〇,,ヤマガタ0035　アル・ケッチァーノ　コンチェルト,ヤマガタゼロゼロサンゴーアルケッチャーノコンチェルト,9900828,山形市双葉町1-2-38,やまぎん県民ホール　雁木棟内,2021/5/27,山形市,38.24795757,140.3250446
〇,,山形チャイニーズ　香琳,ヤマガタチャイニーズ　コウリン,9902432,山形市荒楯町1-21-3,,2021/5/26,山形市,38.23421702,140.3299856
〇,,山形一寸亭,ヤマガタチョットテイ,9900053,山形市薬師町2-17-2,,2021/11/12,山形市,38.26276325,140.3441573
〇,,山形どんどん焼,ヤマガタドンドンヤキ,9900042,山形市七日町4-3-10,,2021/7/26,山形市,38.25244204,140.3432697
〇,,山形長屋酒場,ヤマガタナガヤサカバ,9900039,山形市香澄町1-8-8,山形第1ビル1F,2021/8/6,山形市,38.2487056,140.3292258
〇,,山形の居酒屋　しあわせや,ヤマガタノイザカヤ　シアワセヤ,9900039,山形市香澄町1-14-2,清野ビル1F,2021/11/10,山形市,38.2491758,140.329577
〇,,山形の肉そば屋,ヤマガタノニクソバヤ,9902463,山形市富の中4-1-21,,2021/11/22,山形市,38.23195229,140.3057668
〇,,山形番屋酒場,ヤマガタバンヤサカバ,9900039,山形市香澄町1-3-1,山形駅前第2ビル2F,2021/8/6,山形市,38.24809153,140.329074
〇,,やまがたフルーツCafe～HongmiFul～,ヤマガタフルーツカフェ　ホンミフル,9900047,山形市旅篭町3-4-51,文翔館内喫茶室,2021/10/15,山形市,38.2558509,140.3374158
〇,,山形南四番町食堂,ヤマガタミナミヨンバンチョウショクドウ,9902444,山形市南四番町1-3,,2021/8/16,山形市,38.2351995,140.3240453
〇,,山形もち処　餅の星野屋,ヤマガタモチドコロ　モチノホシノヤ,9900047,山形市旅篭町1-3-8,,2021/7/5,山形市,38.2540418,140.3360659
〇,,やまき,ヤマキ,9900042,山形市七日町2-1-14-6,,2021/11/5,山形市,38.2521425,140.3393829
〇,,山貴,ヤマキ,9902414,山形市寿町18-21,,2021/7/7,山形市,38.2337336,140.3374797
〇,,山口餅屋,ヤマグチモチヤ,9902301,山形市蔵王温泉35,,2021/7/16,山形市,38.16804177,140.3967272
〇,,ヤマコーホール,ヤマコーホール,9900039,山形市香澄町3-2-1,山交ビル7F,2021/6/30,山形市,38.24612133,140.3319686
〇,,やまぼうし,ヤマボウシ,9900828,山形市双葉町1-5-2,,2021/6/15,山形市,38.24788378,140.3234151
〇,,やまや弥平,ヤマヤヤヘイ,9900042,山形市七日町3-2-1,ポールスタービル1F,2021/6/4,山形市,38.25383717,140.3405364
〇,,有限会社　金彦商店,ユウゲンカイシャ　カネヒコショウテン,9900044,山形市木の実町9-11,,2021/9/17,山形市,38.2531674,140.3333907
〇,,(有)ひろよし,ユウゲンガイシャ　ヒロヨシ,9902423,山形市東青田1-5-9,,2021/12/9,山形市,38.22521271,140.3388237
〇,,優勝軒　山形北店,ユウショウケン　ヤマガタキタテン,9900821,山形市北町2-2-45,山形ファミリーボウル内,2021/9/13,山形市,38.26860888,140.3292578
〇,,遊食楽酒　樹里,ユウショクラクシュ　ジュリ,9900039,山形市香澄町1-7-1,,2021/7/29,山形市,38.2485762,140.3293391
〇,,ゆず庵山形店,ユズアンヤマガタテン,9902461,山形市南館5-3-47,,2021/11/16,山形市,38.23701636,140.3102934
〇,,柚子や,ユズヤ,9900813,山形市桧町3-5-25,,2021/8/3,山形市,38.27672663,140.3282286
〇,,雪月花～ゆづか～,ユヅカ,9900034,山形市東原町1-11-24,,2021/12/1,山形市,38.24899367,140.3486549
〇,,余裕  Yutori,ユトリ,9900823,山形市下条町2-18-26,,2021/7/12,山形市,38.26116226,140.3224746
〇,,湯の花茶屋　新左衛門の湯,ユノハナチャヤ　シンザエモンノユ,9902301,山形市蔵王温泉川前905,,2021/6/28,山形市,38.16448556,140.3949747
〇,,陽心,ヨウシン,9900042,山形市七日町3-2-27,,2021/8/26,山形市,38.2535059,140.3411207
〇,,洋風居酒屋ヌーヴォーデパー,ヨウフウイザカヤヌーヴォーデパー,9900042,山形市七日町2-3-29,はま子ビレッジ101号,2021/7/28,山形市,38.25139201,140.3407722
〇,,養老乃瀧　山形江俣店,ヨウロウノタキヤマガタエマタテン,9900861,山形市江俣2-13-9,,2021/8/17,山形市,38.27756099,140.3203645
〇,,良（よし）,ヨシ,9900042,山形市七日町4-15-38,花小路屋台村テナントC,2021/11/9,山形市,38.25413556,140.343682
〇,,yosuga cafe,ヨスガ　カフェ,9902317,山形市みはらしの丘1-3-2,,2021/8/30,山形市,38.1920157,140.2970633
〇,,米沢牛登起波　山形店,ヨネザワギュウトキワ　ヤマガタテン,9900038,山形市幸町2-9　,ダイワロイネットホテル山形駅前1F,2021/12/14,山形市,38.24746014,140.3295608
〇,,米沢牛の案山子,ヨネザワギュウノカカシ,9900039,山形市香澄町1-16-34,東口交通センター2F,2021/7/19,山形市,38.24935785,140.3288066
〇,,Yorimichi,ヨリミチ,9900039,山形市香澄町1-5-4,,2021/6/3,山形市,38.2479755,140.3299687
〇,,萬屋薬局　Pinusカフェ,ヨロヅヤヤッキョク　ピノスカフェ,9900042,山形市七日町1-2-35,,2021/6/23,山形市,38.25245725,140.3381458
〇,,La　Bellezza,ラ　ベレッツァ,9902431,山形市松見町10-7,,2021/6/24,山形市,38.22952111,140.338346
〇,,らー麺 Do･Ni･Bo,ラーメン　ドニボ,9902413,山形市南原町1-20-23,,2021/8/31,山形市,38.2354778,140.3456285
〇,,ラーメン　りょう,ラーメン　リョウ,9902231,山形市大字大森432,,2021/12/13,山形市,38.31105391,140.3875628
〇,,らーめん・ぎょうざ　蔵王,ラーメン・ギョウザ　クラオウ,9902332,山形市飯田1-2-43,,2021/11/4,山形市,38.21661882,140.323833
〇,,ラーメン渓流山形駅前店,ラーメンケイリュウヤマガタエキマエテン,9900038,山形市幸町1-3,,2021/8/16,山形市,38.24769008,140.3284928
〇,,らーめん健心,ラーメンケンシン,9902175,山形市大字中野目438-2,,2021/8/4,山形市,38.3340191,140.314878
〇,,ラーメン次元,ラーメンジゲン,9902447,山形市元木2-8-13,,2021/11/22,山形市,38.22406286,140.3213836
〇,,ラーメン大器,ラーメンタイキ,9900047,山形市旅篭町2-1-40,パークアレービル1F,2021/8/16,山形市,38.25458136,140.3385478
〇,,らー麺男,ラーメンマン,9900042,山形市七日町4-10-25,,2021/9/27,山形市,38.2540818,140.3430401
〇,,LiFE,ライフ,9900043,山形市本町2-4-15,アーチスセンゾクヤビル2F,2021/10/13,山形市,38.2514711,140.3385957
〇,,来夢来人,ライムライト,9900042,山形市七日町4-16-6,YTビル1F,2021/8/4,山形市,38.25468434,140.3430195
〇,,ラウンジ　ga-la,ラウンジ　ガーラ,9900042,山形市七日町3-2-1,ポールスタービル2F,2021/6/1,山形市,38.25371396,140.34046
〇,,ラウンジ　ノクターン（ＮＯＣＴＵＲＮＥ）,ラウンジ　ノクターン,9900042,山形市七日町3-2-24,YT3丁目ビル2F,2021/10/18,山形市,38.25375614,140.3413311
〇,,ラウンジ　Hajime,ラウンジ　ハジメ,9900039,山形市香澄町1-7-4,ひでの家ビル1F,2021/9/14,山形市,38.24855505,140.3294744
〇,,ラウンジ・ルーブ,ラウンジ・ルーブ,9900039,山形市香澄町1-11-8,悠遊館3F,2021/10/19,山形市,38.24952862,140.3305815
〇,,ラウンジ凪,ラウンジナギ,9900042,山形市七日町3-3-2,,2021/8/16,山形市,38.2534879,140.3414105
〇,,ラウンジ京,ラウンジミヤコ,9900042,山形市七日町3-2-20,YTアネックス２F　G,2021/10/21,山形市,38.25413264,140.3414901
〇,,RoughroLL,ラフロール,9900042,山形市七日町3-5-35,丸善ビル1F,2021/6/3,山形市,38.25448696,140.3417274
〇,,"L'ami du vin ""F""",ラミ　デュ　ヴァン　エフ,9900042,山形市七日町2-3-9,ライトロードin七日町2F,2021/8/25,山形市,38.25211857,140.3406485
〇,,REE,リー,9900039,山形市香澄町1-4-5,マルイビル2F,2021/8/2,山形市,38.24832216,140.3295337
〇,,リストランテバル　シャンティ,リストランテバル　シャンティ,9900039,山形市香澄町1-11-22,,2021/11/29,山形市,38.24882075,140.3306705
〇,,Ricco,リッコ,9900039,山形市香澄町1-15-31,さくらビル1F,2021/7/20,山形市,38.24938643,140.3293688
〇,,リッツガーデン,リッツガーデン,9900827,山形市香澄町1-7-12,酒井ビル1F,2021/5/27,山形市,38.24837648,140.3297413
〇,,リッツスイート,リッツスイート,9900827,山形市城南町1-1-1,霞城セントラル24F,2021/5/8,山形市,38.25003191,140.3271865
〇,,Little Diners,リトルダイナース,9900039,山形市香澄町2-1-2,美装ビル1F,2021/5/27,山形市,38.2478307,140.3306477
〇,,料亭　亀松閣,リョウテイ　キショウカク,9900053,山形市薬師町2-8-81,,2021/7/26,山形市,38.26095206,140.34705
〇,,リンガーハット　山形TUY通り店,リンガーハット　ヤマガタティーユーワイドオリテン,9902445,山形市南栄町1-1-51,,2021/10/4,山形市,38.23444304,140.321649
〇,,ル・ドルフェ,ル・ドルフェ,9900039,山形市香澄町1-9-10,大久保ビル3F,2021/11/12,山形市,38.24872184,140.3301366
〇,,ルーヴル,ルーヴル,9900042,山形市七日町1-4-29,,2021/6/4,山形市,38.25365913,140.3393106
〇,,Ruby,ルビー,9900039,山形市香澄町1-9-11,3F,2021/10/20,山形市,38.24869862,140.3301246
〇,,Ruby Ⅱ,ルビーツー,9900039,山形市香澄町1-9-11,2F,2021/10/15,山形市,38.24864649,140.3301011
〇,,Late Cafe CELEBRATION,レイトカフェ　セレブレーション,9900039,山形市香澄町1-11-8,悠遊館2F,2021/6/14,山形市,38.2495797,140.3305574
〇,,冷麺さくら,レイメンサクラ,9900039,山形市香澄町1-16-34,山形駅前東口交通センター2F,2021/6/1,山形市,38.24935206,140.3286235
〇,,REIGN,レイン,9900039,山形市香澄町1-6-4,北條ビル3F,2021/5/26,山形市,38.2484889,140.3302355
〇,,レヴァン・ド・アロッソ,レヴァン・ド・アロッソ,9900043,山形市本町1-7-28,YTプリンスビル2F,2021/8/31,山形市,38.25151816,140.3380273
〇,,歴史と文化の美術館　わらべの里　彌平治亭,レキシトブンカノビジュツカン　ワラベノサト　ヤヘイジテイ,9902301,山形市蔵王温泉童子平1138,,2021/9/16,山形市,38.1666926,140.365514
〇,,レストハウス　パノラマ,レストハウス　パノラマ,9900017,山形市大字上宝沢外1字葉の木沢外12,国有林山形事業区36林班,2021/12/8,山形市,38.1641554,140.421813
〇,,レストラン　セティエーム,レストラン　セティエーム,9902301,山形市蔵王温泉中森877-18,ホテルラルジャン蔵王,2021/11/8,山形市,38.1654685,140.3988374
〇,,レストラン　デラシネ,レストラン　デラシネ,9902445,山形市南栄町1-1-12,,2021/7/8,山形市,38.23540526,140.3218648
〇,,レストラン　パ・マル,レストラン　パ・マル,9900042,山形市七日町2-3-16,,2021/8/5,山形市,38.2520121,140.3412502
〇,,レストラン　ベルベル中央,レストラン　ベルベル中央,9900017,山形市大字上宝沢葉ノ木沢外12,国有林山形森林管理署228林班ノ小班,2021/12/8,山形市,38.16805671,140.4188304
〇,,レストラン　ロングベア―,レストラン　ロングべアー,9900018,山形市大字下宝沢1788,,2021/7/30,山形市,38.2276678,140.4048747
〇,,レストランH&A,レストランエイチアンドエー,9900813,山形市桧町2-5-28,,2021/10/4,山形市,38.27572239,140.3320779
〇,,レストランオアシス,レストランオアシス,9900818,山形市沖町77,済生病院2F,2021/8/20,山形市,38.28506321,140.3349327
〇,,レストランカシュカシュ,レストランカシュカシュ,9902161,山形市漆山大段1865-5,,2021/5/10,山形市,38.31523939,140.355676
〇,,レストランコンフェッティ,レストランコンフェッティ,9900813,山形市荒楯町1-17-40,,2021/5/26,山形市,38.23307608,140.3300043
〇,,レストランチロル,レストランチロル,9900042,山形市七日町2-1-3,プラザビル2F,2021/7/5,山形市,38.2521698,140.338923
〇,,レストランテ　choji,レストランテ　チョージ,9900828,山形市双葉町1-8-6,,2021/7/15,山形市,38.24700049,140.3235811
〇,,レストランやまがたべこいち,レストランヤマガタベコイチ,9900832,山形市城西町5-34-32,,2021/10/12,山形市,38.2626547,140.3119204
〇,,れんげ草,レンゲソウ,9900043,山形市本町2-4-6,,2021/7/20,山形市,38.25067671,140.3383797
〇,,Lotus,ロータス,9902317,山形市みはらしの丘1-5-8,,2021/6/3,山形市,38.1931155,140.2957661
〇,,ローマステーション,ローマステーション,9900062,山形市鈴川町3-1-22,,2021/8/2,山形市,38.26966042,140.3558784
〇,,ＬＯＧＩＣ　ＹＡＭＡＧＡＴＡ,ロジック　ヤマガタ,9900039,山形市香澄町2-2-34,1Ｆ/2Ｆ,2021/11/4,山形市,38.24727225,140.3313823
〇,,ワインバー＆キッチン食堂メルカド,ワインバーアンドキッチンショクドウメルカド,9900042,山形市七日町2-7-36,熊谷ビル2F,2021/7/21,山形市,38.25249895,140.340596
〇,,和がや,ワガヤ,9902435,山形市青田5-7-3,,2021/10/27,山形市,38.2227016,140.3291416
〇,,和工房　空海,ワコウボウ　クウカイ,9900044,山形市木の実町2-22,,2021/6/14,山形市,38.25022303,140.3339729
〇,,和菜バルSHINYA,ワサイバルシンヤ,9900042,山形市七日町3-5-32,YTプレイビル1F,2021/11/5,山形市,38.25486469,140.3417843
〇,,和食お食事処　ゆず,ワショクオショクジドコロ　ユズ,9900046,山形市大手町8-15,,2021/8/20,山形市,38.2571562,140.3348812
〇,,和風すなっく　あかし,ワフウスナック　アカシ,9900042,山形市七日町3-3-37,酒井ビル,2021/8/26,山形市,38.25331702,140.34205
〇,,和風スナックみくる,ワフウスナックミクル,9900042,山形市七日町4-15-38,花小路屋台村　テナントA,2021/6/11,山形市,38.254184,140.3436679
〇,,和風肉料理佐五郎,ワフウニクリョウリサゴロウ,9900039,山形市香澄町1-6-10,,2021/6/22,山形市,38.2482478,140.3302246
〇,,和風レストランまるまつ成沢店,ワフウレストランマルマツナリサワテン,9902339,山形市成沢西5-3-30,,2021/9/7,山形市,38.20883035,140.3175812
〇,,和仏レストラン　ラ・ベルジュ,ワフツレストラン　ラ　ベルジュ,9902402,山形市小立4-7-27,,2021/7/5,山形市,38.22683608,140.3488412
〇,,ワンショットハウス　火酒屋（ウォッカヤ）,ワンショットハウス　ウォッカヤ,9900042,山形市七日町4-16-32,ほづみビル,2021/6/18,山形市,38.2541844,140.3428667
